blk_no,street,max_floor_lvl,year_completed,towns,address,postalcode,latitude,longitude,distance_km,nearest_mrt
1,BEACH RD,16,1970,KALLANG/WHAMPOA,1 BEACH RD,190001,1.3036713506088,103.864478660925,0.4,LAVENDER MRT STATION
1,BEDOK STH AVE 1,14,1975,BEDOK,1 BEDOK STH AVE 1,460001,1.32085208689731,103.933721091441,0.6,BEDOK MRT STATION
1,CHAI CHEE RD,15,1982,BEDOK,1 CHAI CHEE RD,461001,1.32796879176302,103.922716018139,0.9,BEDOK MRT STATION
1,CHANGI VILLAGE RD,4,1975,PASIR RIS,1 CHANGI VILLAGE RD,500001,1.38854656229022,103.987804503483,3.6,CHANGI AIRPORT MRT STATION
1,DELTA AVE,25,1982,BUKIT MERAH,1 DELTA AVE,160001,1.2920752508431,103.828584077626,0.7,TIONG BAHRU MRT STATION
1,DOVER RD,12,1975,QUEENSTOWN,1 DOVER RD,130001,1.3025299473495,103.783271662459,0.6,ONE-NORTH MRT STATION
1,EUNOS CRES,14,1977,GEYLANG,1 EUNOS CRES,400001,1.3206576452482,103.90246344511,0.2,EUNOS MRT STATION
1,EVERTON PK,12,1965,BUKIT MERAH,1 EVERTON PK,080001,1.27549895431693,103.841398475091,0.5,TANJONG PAGAR MRT STATION
1,GHIM MOH RD,15,1975,QUEENSTOWN,1 GHIM MOH RD,270001,1.31287975684307,103.786855017635,0.9,BUONA VISTA MRT STATION
1,HAIG RD,15,1976,GEYLANG,1 HAIG RD,430001,1.31129091152627,103.897703432652,0.9,PAYA LEBAR MRT STATION
1,HOLLAND CL,13,1973,QUEENSTOWN,1 HOLLAND CL,271001,1.30921937771543,103.796732386696,0.2,HOLLAND VILLAGE MRT STATION
1,HOUGANG AVE 3,14,1974,HOUGANG,1 HOUGANG AVE 3,530001,1.36413097349222,103.89300132385,0.9,HOUGANG MRT STATION
1,JLN BT MERAH,14,1974,BUKIT MERAH,1 JLN BT MERAH,150001,1.28647148628638,103.808275089948,0.9,QUEENSTOWN MRT STATION
1,JLN KUKOH,17,1969,CENTRAL AREA,1 JLN KUKOH,161001,1.2882310152805,103.839934168065,0.7,CHINATOWN MRT STATION
1,KG KAYU RD,10,1963,KALLANG/WHAMPOA,1 KG KAYU RD,431001,1.30355769675629,103.883796413118,0.3,MOUNTBATTEN MRT STATION
1,LOR 7 TOA PAYOH,11,1968,TAMPINES,1 LOR 7 TOA PAYOH,310001,1.33943033543358,103.853442790992,0.7,BRADDELL MRT STATION
1,LOR LEW LIAN,14,1977,SERANGOON,1 LOR LEW LIAN,531001,1.35086712646948,103.875343939672,0.3,SERANGOON MRT STATION
1,MARINE TER,25,1974,MARINE PARADE,1 MARINE TER,440001,1.30482902187779,103.918614976369,1.9,KEMBANGAN MRT STATION
1,MARSILING DR,11,1973,WOODLANDS,1 MARSILING DR,730001,1.44067109860246,103.775739945213,0.9,MARSILING MRT STATION
1,MAUDE RD,14,1970,KALLANG/WHAMPOA,1 MAUDE RD,200001,1.30758230206089,103.858967398343,0.5,LAVENDER MRT STATION
1,PINE CL,19,1998,GEYLANG,1 PINE CL,390001,1.30787056219408,103.883192164927,0.2,MOUNTBATTEN MRT STATION
1,QUEEN'S RD,23,1974,BUKIT TIMAH,1 QUEEN'S RD,260001,1.31726629524359,103.806782877524,0.1,FARRER ROAD MRT STATION
1,ST. GEORGE'S RD,12,1975,KALLANG/WHAMPOA,1 ST. GEORGE'S RD,320001,1.32340263694069,103.86163080083,0.6,BOON KENG MRT STATION
1,TECK WHYE AVE,13,1983,CHOA CHU KANG,1 TECK WHYE AVE,680001,1.38253882861956,103.751710905678,0.5,KEAT HONG LRT STATION
1,TELOK BLANGAH CRES,16,1973,BUKIT MERAH,1 TELOK BLANGAH CRES,090001,1.27945660077329,103.817897561986,1.1,REDHILL MRT STATION
1,TG PAGAR PLAZA,24,1976,CENTRAL AREA,1 TG PAGAR PLAZA,082001,1.27625903973354,103.842923496499,0.3,TANJONG PAGAR MRT STATION
1,THOMSON RD,4,1977,KALLANG/WHAMPOA,1 THOMSON RD,300001,1.32559594839311,103.842571612968,0.6,NOVENA MRT STATION
1,TOH YI DR,13,1987,BUKIT TIMAH,1 TOH YI DR,591501,1.33958155877064,103.774586318946,0.2,BEAUTY WORLD MRT STATION
1A,CANTONMENT RD,50,2009,CENTRAL AREA,1A CANTONMENT RD,085101,1.27784271048219,103.840965923691,0.3,MAXWELL MRT STATION
1A,EUNOS CRES,2,1981,GEYLANG,1A EUNOS CRES,401001,1.32129030482793,103.902727807563,0.2,EUNOS MRT STATION
1B,CANTONMENT RD,50,2009,CENTRAL AREA,1B CANTONMENT RD,085201,1.27779940676005,103.841403430465,0.3,MAXWELL MRT STATION
1C,CANTONMENT RD,50,2009,CENTRAL AREA,1C CANTONMENT RD,085301,1.27744909387079,103.841666679651,0.3,MAXWELL MRT STATION
1D,CANTONMENT RD,50,2009,CENTRAL AREA,1D CANTONMENT RD,085401,1.27692024304713,103.841485788369,0.4,MAXWELL MRT STATION
1E,CANTONMENT RD,50,2009,CENTRAL AREA,1E CANTONMENT RD,085501,1.27662168427368,103.841156142262,0.4,MAXWELL MRT STATION
1F,CANTONMENT RD,50,2009,CENTRAL AREA,1F CANTONMENT RD,085601,1.27598699469414,103.841191762017,0.5,TANJONG PAGAR MRT STATION
1G,CANTONMENT RD,50,2009,CENTRAL AREA,1G CANTONMENT RD,085701,1.27553229128302,103.841274606704,0.5,TANJONG PAGAR MRT STATION
10,CHAI CHEE RD,15,1999,BEDOK,10 CHAI CHEE RD,467010,1.32727572366021,103.924803599281,0.6,BEDOK MRT STATION
10,DAKOTA CRES,7,1958,GEYLANG,10 DAKOTA CRES,390010,1.30634114614887,103.884458183612,0.1,MOUNTBATTEN MRT STATION
10,EUNOS CRES,16,1977,GEYLANG,10 EUNOS CRES,400010,1.32228655863065,103.902720513959,0.3,EUNOS MRT STATION
10,GLOUCESTER RD,14,1976,KALLANG/WHAMPOA,10 GLOUCESTER RD,210010,1.31391658721965,103.852209769739,0.5,FARRER PARK MRT STATION
10,HAIG RD,13,1976,GEYLANG,10 HAIG RD,430010,1.3148464110566,103.895864993673,0.5,PAYA LEBAR MRT STATION
10,HOLLAND AVE,14,1973,QUEENSTOWN,10 HOLLAND AVE,271010,1.30814997104791,103.794275184926,0.4,HOLLAND VILLAGE MRT STATION
10,JLN RUMAH TINGGI,4,1986,BUKIT MERAH,10 JLN RUMAH TINGGI,150010,1.28820018880462,103.808369387433,0.7,QUEENSTOWN MRT STATION
10,JLN KUKOH,12,1970,CENTRAL AREA,10 JLN KUKOH,162010,1.2869738344398,103.839075823483,0.5,OUTRAM PARK MRT STATION
10,JLN BT HO SWEE,10,1962,BUKIT MERAH,10 JLN BT HO SWEE,161010,1.28745837020188,103.832675765986,0.2,HAVELOCK MRT STATION
10,JLN BATU,12,1966,KALLANG/WHAMPOA,10 JLN BATU,431010,1.30204488252463,103.882887148325,0.4,MOUNTBATTEN MRT STATION
10,JOO SENG RD,20,1982,TAMPINES,10 JOO SENG RD,360010,1.33461833377097,103.88016502252,0.8,TAI SENG MRT STATION
10,LOR 7 TOA PAYOH,25,1997,TAMPINES,10 LOR 7 TOA PAYOH,310010,1.33716527577081,103.857228807914,1.2,BRADDELL MRT STATION
10,MARSILING DR,22,1975,WOODLANDS,10 MARSILING DR,730010,1.44080567418718,103.777318569996,1.0,MARSILING MRT STATION
10,NTH BRIDGE RD,16,1973,KALLANG/WHAMPOA,10 NTH BRIDGE RD,190010,1.3055523404779,103.863562821016,0.2,LAVENDER MRT STATION
10,PINE CL,13,1981,GEYLANG,10 PINE CL,391010,1.30915239429834,103.882242524292,0.4,MOUNTBATTEN MRT STATION
10,SELEGIE RD,10,1963,CENTRAL AREA,10 SELEGIE RD,180010,1.30370879401395,103.850537238747,0.2,ROCHOR MRT STATION
10,ST. GEORGE'S RD,4,1984,KALLANG/WHAMPOA,10 ST. GEORGE'S RD,320010,1.32374648815059,103.863412150847,0.7,BOON KENG MRT STATION
10,TECK WHYE AVE,12,1977,CHOA CHU KANG,10 TECK WHYE AVE,680010,1.38047054647235,103.755211077169,0.4,PHOENIX LRT STATION
10,TELOK BLANGAH CRES,10,1974,BUKIT MERAH,10 TELOK BLANGAH CRES,090010,1.27773153190559,103.819769431353,1.2,TIONG BAHRU MRT STATION
10,TOH YI DR,7,1988,BUKIT TIMAH,10 TOH YI DR,590010,1.33753956576433,103.773161066389,0.5,BEAUTY WORLD MRT STATION
10A,BENDEMEER RD,40,2016,KALLANG/WHAMPOA,10A BENDEMEER RD,331010,1.31499138887312,103.86050538635,0.3,BENDEMEER MRT STATION
10A,BOON TIONG RD,40,2014,BUKIT MERAH,10A BOON TIONG RD,160010,1.28635847107695,103.82962615571,0.3,TIONG BAHRU MRT STATION
10B,BENDEMEER RD,40,2016,KALLANG/WHAMPOA,10B BENDEMEER RD,332010,1.31547715332072,103.860312930116,0.3,BOON KENG MRT STATION
10B,BEDOK STH AVE 2,20,1994,BEDOK,10B BEDOK STH AVE 2,461010,1.32235386630343,103.936183263112,0.8,BEDOK MRT STATION
10B,BOON TIONG RD,30,2014,BUKIT MERAH,10B BOON TIONG RD,164010,1.28633684743341,103.829204757258,0.3,TIONG BAHRU MRT STATION
10B,LOR 7 TOA PAYOH,25,1997,TAMPINES,10B LOR 7 TOA PAYOH,312010,1.33716136352623,103.858353639387,1.3,BRADDELL MRT STATION
10C,BEDOK STH AVE 2,2,1994,BEDOK,10C BEDOK STH AVE 2,462010,1.32209423564282,103.936223586082,0.8,BEDOK MRT STATION
10C,BENDEMEER RD,40,2016,KALLANG/WHAMPOA,10C BENDEMEER RD,333010,1.31584236197018,103.860644539729,0.2,BOON KENG MRT STATION
10D,BEDOK STH AVE 2,23,1994,BEDOK,10D BEDOK STH AVE 2,463010,1.3217708591015,103.936326570445,0.8,BEDOK MRT STATION
10E,BEDOK STH AVE 2,21,1992,BEDOK,10E BEDOK STH AVE 2,464010,1.3216200934601,103.937040959341,0.9,BEDOK MRT STATION
10F,BEDOK STH AVE 2,24,1992,BEDOK,10F BEDOK STH AVE 2,465010,1.32221773472774,103.937001345916,0.9,BEDOK MRT STATION
100,ALJUNIED CRES,12,1977,GEYLANG,100 ALJUNIED CRES,380100,1.32095901223871,103.884129395369,0.5,ALJUNIED MRT STATION
100,BEDOK NTH AVE 4,14,1978,BEDOK,100 BEDOK NTH AVE 4,460100,1.33413899974038,103.938389713003,0.6,BEDOK RESERVOIR MRT STATION
100,C'WEALTH CRES,10,1964,QUEENSTOWN,100 C'WEALTH CRES,140100,1.30770527644458,103.801272476263,0.7,COMMONWEALTH MRT STATION
100,LOR 1 TOA PAYOH,16,1968,TAMPINES,100 LOR 1 TOA PAYOH,310100,1.33956400517882,103.848585713817,0.2,BRADDELL MRT STATION
100,WHAMPOA DR,25,1973,KALLANG/WHAMPOA,100 WHAMPOA DR,320100,1.32077947735201,103.854348739922,0.8,BOON KENG MRT STATION
101,AH HOOD RD,25,1981,KALLANG/WHAMPOA,101 AH HOOD RD,320101,1.32739678972464,103.84448102202,0.6,TOA PAYOH MRT STATION
101,ALJUNIED CRES,12,1977,GEYLANG,101 ALJUNIED CRES,380101,1.32092275330579,103.883351967045,0.5,ALJUNIED MRT STATION
101,ANG MO KIO AVE 3,12,1977,ANG MO KIO,101 ANG MO KIO AVE 3,560101,1.37026158388486,103.839467898898,0.4,MAYFLOWER MRT STATION
101,BEDOK RESERVOIR RD,12,1985,BEDOK,101 BEDOK RESERVOIR RD,470101,1.32844913301985,103.909937396599,0.7,KAKI BUKIT MRT STATION
101,BEDOK NTH AVE 4,13,1977,BEDOK,101 BEDOK NTH AVE 4,460101,1.334484667124,103.937924710969,0.5,BEDOK RESERVOIR MRT STATION
101,BISHAN ST 12,25,1986,BISHAN,101 BISHAN ST 12,570101,1.34485915828152,103.848400765185,0.5,BRADDELL MRT STATION
101,BT BATOK WEST AVE 6,13,1984,BUKIT BATOK,101 BT BATOK WEST AVE 6,650101,1.34670636093149,103.746920663038,0.4,BUKIT BATOK MRT STATION
101,BT PURMEI RD,11,1982,BUKIT MERAH,101 BT PURMEI RD,090101,1.27146256556443,103.825683545567,0.9,HARBOURFRONT MRT STATION
101,C'WEALTH CRES,10,1964,QUEENSTOWN,101 C'WEALTH CRES,140101,1.30805159231327,103.800842814413,0.7,HOLLAND VILLAGE MRT STATION
101,CLEMENTI ST 14,15,1984,CLEMENTI,101 CLEMENTI ST 14,120101,1.32208936757694,103.76893341249,0.9,CLEMENTI MRT STATION
101,GANGSA RD,13,1986,BUKIT PANJANG,101 GANGSA RD,670101,1.37916431633637,103.767439286222,0.2,PETIR LRT STATION
101,HENDERSON CRES,12,1967,BUKIT MERAH,101 HENDERSON CRES,150101,1.29071799751539,103.821625207737,0.5,REDHILL MRT STATION
101,HOUGANG AVE 1,9,1983,HOUGANG,101 HOUGANG AVE 1,530101,1.35493747800562,103.891360573947,0.9,KOVAN MRT STATION
101,JLN RAJAH,17,1980,KALLANG/WHAMPOA,101 JLN RAJAH,321101,1.32871478392959,103.850545321033,0.5,TOA PAYOH MRT STATION
101,JURONG EAST ST 13,16,1982,JURONG EAST,101 JURONG EAST ST 13,600101,1.33701100762294,103.738787314099,0.6,JURONG EAST MRT STATION
101,LENGKONG TIGA,4,1988,BEDOK,101 LENGKONG TIGA,410101,1.32515983382087,103.910888819332,0.5,KEMBANGAN MRT STATION
101,PASIR RIS ST 12,13,1988,PASIR RIS,101 PASIR RIS ST 12,510101,1.36705021516612,103.958181857039,1.2,PASIR RIS MRT STATION
101,POTONG PASIR AVE 1,16,1984,TAMPINES,101 POTONG PASIR AVE 1,350101,1.33315710123237,103.868380398922,0.1,POTONG PASIR MRT STATION
101,RIVERVALE WALK,17,1998,SENGKANG,101 RIVERVALE WALK,540101,1.38276428893595,103.899272035914,0.3,RANGGUNG LRT STATION
101,SERANGOON NTH AVE 1,13,1984,SERANGOON,101 SERANGOON NTH AVE 1,550101,1.37103631988089,103.870360910842,2.0,KOVAN MRT STATION
101,SIMEI ST 1,11,1988,TOA PAYOH,101 SIMEI ST 1,520101,1.34084991073361,103.951433717517,0.3,SIMEI MRT STATION
101,SPOTTISWOODE PK RD,20,1973,BUKIT MERAH,101 SPOTTISWOODE PK RD,080101,1.27524141291212,103.836045808088,0.8,OUTRAM PARK MRT STATION
101,TAMPINES ST 11,11,1981,TOA PAYOH,101 TAMPINES ST 11,521101,1.34739870794535,103.945292359327,0.8,TAMPINES WEST MRT STATION
101,TECK WHYE LANE,13,1988,CHOA CHU KANG,101 TECK WHYE LANE,680101,1.37788964623982,103.754239909547,0.2,TECK WHYE LRT STATION
101,TOWNER RD,4,1982,KALLANG/WHAMPOA,101 TOWNER RD,322101,1.31942539040726,103.861087462608,0.2,BOON KENG MRT STATION
101,WHAMPOA DR,25,1973,KALLANG/WHAMPOA,101 WHAMPOA DR,323101,1.32041710187602,103.853813946402,0.8,BOON KENG MRT STATION
101,WOODLANDS ST 13,10,1984,WOODLANDS,101 WOODLANDS ST 13,730101,1.43598268540185,103.781932747463,0.8,WOODLANDS MRT STATION
101,YISHUN AVE 5,4,1977,YISHUN,101 YISHUN AVE 5,760101,1.43053231016112,103.827618665577,0.8,YISHUN MRT STATION
101A,BIDADARI PK DR,16,2020,TAMPINES,101A BIDADARI PK DR,341101,1.33685462167621,103.870996313693,0.3,WOODLEIGH MRT STATION
101A,CANBERRA ST,15,2019,SEMBAWANG,101A CANBERRA ST,751101,1.45173892803325,103.83045410628,0.9,CANBERRA MRT STATION
101A,LOR 2 TOA PAYOH,17,1992,TAMPINES,101A LOR 2 TOA PAYOH,310101,1.33974126719163,103.847264187382,0.1,BRADDELL MRT STATION
101A,PUNGGOL FIELD,16,2001,PUNGGOL,101A PUNGGOL FIELD,821101,1.3979461677694,103.905945136259,0.1,COVE LRT STATION
101B,CANBERRA ST,16,2019,SEMBAWANG,101B CANBERRA ST,752101,1.45166310353079,103.831174909166,0.9,CANBERRA MRT STATION
101B,LOR 2 TOA PAYOH,13,1992,TAMPINES,101B LOR 2 TOA PAYOH,311101,1.33959884500115,103.847605414427,0.1,BRADDELL MRT STATION
101B,PUNGGOL FIELD,17,2001,PUNGGOL,101B PUNGGOL FIELD,822101,1.39784715104396,103.906436071245,0.2,COVE LRT STATION
101C,PUNGGOL FIELD,17,2001,PUNGGOL,101C PUNGGOL FIELD,823101,1.39809045787162,103.906569305679,0.1,COVE LRT STATION
101D,PUNGGOL FIELD,17,2001,PUNGGOL,101D PUNGGOL FIELD,824101,1.39848478483582,103.90614388692,0.1,COVE LRT STATION
102,ALJUNIED CRES,12,1977,GEYLANG,102 ALJUNIED CRES,380102,1.3204390302197,103.882420433245,0.4,ALJUNIED MRT STATION
102,ANG MO KIO AVE 3,12,1977,ANG MO KIO,102 ANG MO KIO AVE 3,560102,1.37065009249377,103.839410348811,0.4,MAYFLOWER MRT STATION
102,BEDOK RESERVOIR RD,4,1985,BEDOK,102 BEDOK RESERVOIR RD,470102,1.32849187727623,103.90926515578,0.7,KAKI BUKIT MRT STATION
102,BEDOK NTH AVE 4,14,1976,BEDOK,102 BEDOK NTH AVE 4,460102,1.33390654765002,103.937458398204,0.5,BEDOK RESERVOIR MRT STATION
102,BISHAN ST 12,25,1986,BISHAN,102 BISHAN ST 12,570102,1.3451431233477,103.847990805259,0.5,BRADDELL MRT STATION
102,BT PURMEI RD,10,1983,BUKIT MERAH,102 BT PURMEI RD,090102,1.27190842334423,103.826671653892,1.0,HARBOURFRONT MRT STATION
102,BT BATOK WEST AVE 6,13,1984,BUKIT BATOK,102 BT BATOK WEST AVE 6,650102,1.34745833930547,103.747473341114,0.3,BUKIT BATOK MRT STATION
102,C'WEALTH CRES,10,1964,QUEENSTOWN,102 C'WEALTH CRES,140102,1.30782464878023,103.800629787177,0.6,COMMONWEALTH MRT STATION
102,CLEMENTI ST 14,4,1984,CLEMENTI,102 CLEMENTI ST 14,120102,1.32228557225905,103.769201884359,0.9,CLEMENTI MRT STATION
102,GANGSA RD,10,1986,BUKIT PANJANG,102 GANGSA RD,670102,1.37910762831305,103.768153816778,0.2,PETIR LRT STATION
102,HENDERSON CRES,14,1967,BUKIT MERAH,102 HENDERSON CRES,150102,1.290366187147,103.82157708445,0.5,REDHILL MRT STATION
102,HOUGANG AVE 1,13,1983,HOUGANG,102 HOUGANG AVE 1,530102,1.35496446293882,103.890855054687,0.9,KOVAN MRT STATION
102,JLN RAJAH,12,1980,KALLANG/WHAMPOA,102 JLN RAJAH,321102,1.32822306444761,103.851519753845,0.6,TOA PAYOH MRT STATION
102,JLN DUSUN,25,1981,KALLANG/WHAMPOA,102 JLN DUSUN,320102,1.3278687431847,103.844209602863,0.6,TOA PAYOH MRT STATION
102,JURONG EAST ST 13,12,1981,JURONG EAST,102 JURONG EAST ST 13,600102,1.33609657873553,103.738219191663,0.6,JURONG EAST MRT STATION
102,LENGKONG TIGA,14,1988,BEDOK,102 LENGKONG TIGA,410102,1.32557930714658,103.91065754789,0.6,KEMBANGAN MRT STATION
102,PASIR RIS ST 12,13,1988,PASIR RIS,102 PASIR RIS ST 12,510102,1.36748427336516,103.958041055125,1.2,PASIR RIS MRT STATION
102,POTONG PASIR AVE 1,16,1983,TAMPINES,102 POTONG PASIR AVE 1,350102,1.3336901273759,103.868810587506,0.1,POTONG PASIR MRT STATION
102,RIVERVALE WALK,17,1998,SENGKANG,102 RIVERVALE WALK,540102,1.38180761026047,103.900893229708,0.3,KANGKAR LRT STATION
102,SERANGOON NTH AVE 1,4,1984,SERANGOON,102 SERANGOON NTH AVE 1,550102,1.37084327297737,103.871153606719,1.9,KOVAN MRT STATION
102,SIMEI ST 1,11,1988,TOA PAYOH,102 SIMEI ST 1,520102,1.34134724976252,103.951355074928,0.3,SIMEI MRT STATION
102,SPOTTISWOODE PK RD,20,1973,BUKIT MERAH,102 SPOTTISWOODE PK RD,080102,1.27472973036659,103.836235490003,0.9,OUTRAM PARK MRT STATION
102,TAMPINES ST 11,11,1982,TOA PAYOH,102 TAMPINES ST 11,521102,1.34671616267656,103.945521388285,0.8,TAMPINES WEST MRT STATION
102,TECK WHYE LANE,9,1988,CHOA CHU KANG,102 TECK WHYE LANE,680102,1.377082841385,103.754394432037,0.1,TECK WHYE LRT STATION
102,TOWNER RD,4,1983,KALLANG/WHAMPOA,102 TOWNER RD,322102,1.32058609456907,103.862002015145,0.3,BOON KENG MRT STATION
102,WOODLANDS ST 13,12,1984,WOODLANDS,102 WOODLANDS ST 13,730102,1.43608294925148,103.781199565987,0.8,MARSILING MRT STATION
102A,BIDADARI PK DR,16,2020,TAMPINES,102A BIDADARI PK DR,341102,1.33735590005967,103.871390657454,0.3,WOODLEIGH MRT STATION
102A,CANBERRA ST,17,2019,SEMBAWANG,102A CANBERRA ST,751102,1.45119390519494,103.832227554636,0.9,CANBERRA MRT STATION
102A,DEPOT RD,21,2016,BUKIT MERAH,102A DEPOT RD,101102,1.28029134553105,103.81333235886,1.1,REDHILL MRT STATION
102A,PUNGGOL FIELD,17,2001,PUNGGOL,102A PUNGGOL FIELD,821102,1.39883318313425,103.905783553043,0.0,COVE LRT STATION
102B,BIDADARI PK DR,16,2020,TAMPINES,102B BIDADARI PK DR,342102,1.33622045424375,103.871847066518,0.4,WOODLEIGH MRT STATION
102B,CANBERRA ST,16,2019,SEMBAWANG,102B CANBERRA ST,752102,1.45123970424367,103.83143636512,0.9,CANBERRA MRT STATION
102B,PUNGGOL FIELD,17,2001,PUNGGOL,102B PUNGGOL FIELD,822102,1.39908525778671,103.905471407838,0.1,COVE LRT STATION
102C,PUNGGOL FIELD,17,2000,PUNGGOL,102C PUNGGOL FIELD,823102,1.39876127750607,103.90493897318,0.1,COVE LRT STATION
102D,PUNGGOL FIELD,16,2001,PUNGGOL,102D PUNGGOL FIELD,824102,1.39848070795436,103.905249752459,0.1,COVE LRT STATION
103,AH HOOD RD,25,1981,KALLANG/WHAMPOA,103 AH HOOD RD,320103,1.32796267483785,103.844826964123,0.6,TOA PAYOH MRT STATION
103,ALJUNIED CRES,12,1977,GEYLANG,103 ALJUNIED CRES,380103,1.32051692193259,103.883270319267,0.5,ALJUNIED MRT STATION
103,ANG MO KIO AVE 3,12,1977,ANG MO KIO,103 ANG MO KIO AVE 3,560103,1.37101657804604,103.839304839187,0.3,MAYFLOWER MRT STATION
103,BEDOK NTH AVE 4,14,1976,BEDOK,103 BEDOK NTH AVE 4,460103,1.33348258777759,103.937542520091,0.6,BEDOK RESERVOIR MRT STATION
103,BEDOK RESERVOIR RD,12,1985,BEDOK,103 BEDOK RESERVOIR RD,470103,1.32877022232019,103.909381354431,0.7,KAKI BUKIT MRT STATION
103,BISHAN ST 12,25,1986,BISHAN,103 BISHAN ST 12,570103,1.34551249132105,103.848314162387,0.5,BRADDELL MRT STATION
103,BT BATOK CTRL,13,1984,BUKIT BATOK,103 BT BATOK CTRL,650103,1.34822368204242,103.748034526478,0.2,BUKIT BATOK MRT STATION
103,BT PURMEI RD,11,1982,BUKIT MERAH,103 BT PURMEI RD,090103,1.27208558524996,103.825495615402,0.9,HARBOURFRONT MRT STATION
103,C'WEALTH CRES,10,1964,QUEENSTOWN,103 C'WEALTH CRES,140103,1.30834597039185,103.800214004392,0.6,HOLLAND VILLAGE MRT STATION
103,CLEMENTI ST 14,14,1984,CLEMENTI,103 CLEMENTI ST 14,120103,1.32258854750628,103.769176205799,0.9,CLEMENTI MRT STATION
103,GANGSA RD,4,1986,BUKIT PANJANG,103 GANGSA RD,670103,1.37867070821171,103.768538440957,0.2,PETIR LRT STATION
103,HENDERSON CRES,14,1967,BUKIT MERAH,103 HENDERSON CRES,150103,1.28974209684545,103.821375681569,0.5,REDHILL MRT STATION
103,HOUGANG AVE 1,13,1983,HOUGANG,103 HOUGANG AVE 1,530103,1.35528223434405,103.89036014824,0.8,KOVAN MRT STATION
103,JLN RAJAH,25,1983,KALLANG/WHAMPOA,103 JLN RAJAH,321103,1.32734143333539,103.852780650365,0.8,TOA PAYOH MRT STATION
103,JURONG EAST ST 13,25,1982,JURONG EAST,103 JURONG EAST ST 13,600103,1.33668715015786,103.738059200285,0.7,JURONG EAST MRT STATION
103,LENGKONG TIGA,14,1988,BEDOK,103 LENGKONG TIGA,410103,1.32585546338587,103.910598910975,0.6,KEMBANGAN MRT STATION
103,LOR 1 TOA PAYOH,10,1967,TAMPINES,103 LOR 1 TOA PAYOH,310103,1.34010929042644,103.848184574089,0.1,BRADDELL MRT STATION
103,PASIR RIS ST 12,13,1988,PASIR RIS,103 PASIR RIS ST 12,510103,1.36769508123853,103.958404209993,1.2,PASIR RIS MRT STATION
103,POTONG PASIR AVE 1,4,1983,TAMPINES,103 POTONG PASIR AVE 1,350103,1.33411338676706,103.86952371664,0.2,POTONG PASIR MRT STATION
103,RIVERVALE WALK,17,1998,SENGKANG,103 RIVERVALE WALK,540103,1.38291146712108,103.901208583313,0.2,KANGKAR LRT STATION
103,SERANGOON NTH AVE 1,13,1984,SERANGOON,103 SERANGOON NTH AVE 1,550103,1.37067353047523,103.870263924296,2.0,KOVAN MRT STATION
103,SPOTTISWOODE PK RD,25,1976,BUKIT MERAH,103 SPOTTISWOODE PK RD,080103,1.27466096925721,103.835279824837,0.9,OUTRAM PARK MRT STATION
103,TAMPINES ST 11,10,1982,TOA PAYOH,103 TAMPINES ST 11,520103,1.34769662535556,103.946229920882,0.8,TAMPINES MRT STATION
103,TECK WHYE LANE,9,1988,CHOA CHU KANG,103 TECK WHYE LANE,680103,1.37713078246274,103.753555993761,0.1,TECK WHYE LRT STATION
103,TOWNER RD,11,1982,KALLANG/WHAMPOA,103 TOWNER RD,322103,1.32064381512285,103.861634081148,0.3,BOON KENG MRT STATION
103,WOODLANDS ST 13,4,1984,WOODLANDS,103 WOODLANDS ST 13,730103,1.4366212320968,103.78097673981,0.8,MARSILING MRT STATION
103,YISHUN RING RD,4,1984,YISHUN,103 YISHUN RING RD,760103,1.43136934951878,103.828892847163,0.7,YISHUN MRT STATION
103A,BIDADARI PK DR,17,2020,TAMPINES,103A BIDADARI PK DR,341103,1.33560960429896,103.871727597314,0.4,POTONG PASIR MRT STATION
103A,CANBERRA ST,15,2019,SEMBAWANG,103A CANBERRA ST,751103,1.45103006132424,103.830534008712,0.8,CANBERRA MRT STATION
103A,DEPOT RD,25,1999,BUKIT MERAH,103A DEPOT RD,101103,1.28070197642689,103.813353428682,1.0,REDHILL MRT STATION
103A,EDGEFIELD PLAINS,17,2000,PUNGGOL,103A EDGEFIELD PLAINS,821103,1.39825531783982,103.904753996381,0.2,COVE LRT STATION
103B,BIDADARI PK DR,16,2020,TAMPINES,103B BIDADARI PK DR,342103,1.33508945420373,103.871337279805,0.4,POTONG PASIR MRT STATION
103B,CANBERRA ST,15,2019,SEMBAWANG,103B CANBERRA ST,752103,1.45056599465441,103.831238741555,0.8,CANBERRA MRT STATION
103B,DEPOT RD,20,1999,BUKIT MERAH,103B DEPOT RD,102103,1.28073692384594,103.813135678562,1.0,REDHILL MRT STATION
103B,EDGEFIELD PLAINS,16,2000,PUNGGOL,103B EDGEFIELD PLAINS,822103,1.39773127538403,103.90468537415,0.2,COVE LRT STATION
103C,EDGEFIELD PLAINS,16,2001,PUNGGOL,103C EDGEFIELD PLAINS,823103,1.39726660845387,103.90453836308,0.3,COVE LRT STATION
104,ALJUNIED CRES,12,1977,GEYLANG,104 ALJUNIED CRES,380104,1.32006886595229,103.882818111651,0.4,ALJUNIED MRT STATION
104,BEDOK RESERVOIR RD,15,1985,BEDOK,104 BEDOK RESERVOIR RD,470104,1.32924536652386,103.909923721507,0.6,KAKI BUKIT MRT STATION
104,BEDOK NTH AVE 4,14,1976,BEDOK,104 BEDOK NTH AVE 4,460104,1.3332985212474,103.936601473643,0.5,BEDOK RESERVOIR MRT STATION
104,BISHAN ST 12,4,1985,BISHAN,104 BISHAN ST 12,570104,1.3456750211197,103.84803290576,0.6,BRADDELL MRT STATION
104,BT PURMEI RD,12,1983,BUKIT MERAH,104 BT PURMEI RD,090104,1.27239853587858,103.825625504182,0.9,HARBOURFRONT MRT STATION
104,BT BATOK CTRL,8,1984,BUKIT BATOK,104 BT BATOK CTRL,650104,1.34899500255547,103.747258218606,0.3,BUKIT BATOK MRT STATION
104,C'WEALTH CRES,10,1964,QUEENSTOWN,104 C'WEALTH CRES,140104,1.30795875311898,103.799976942939,0.6,HOLLAND VILLAGE MRT STATION
104,CLEMENTI ST 14,4,1984,CLEMENTI,104 CLEMENTI ST 14,120104,1.32294968512724,103.769189152266,1.0,CLEMENTI MRT STATION
104,GANGSA RD,10,1986,BUKIT PANJANG,104 GANGSA RD,670104,1.37880399486152,103.76796875654,0.2,PETIR LRT STATION
104,HENDERSON CRES,12,1967,BUKIT MERAH,104 HENDERSON CRES,150104,1.2893692748935,103.821538089569,0.5,REDHILL MRT STATION
104,HOUGANG AVE 1,4,1983,HOUGANG,104 HOUGANG AVE 1,530104,1.35478438666054,103.890318475929,0.9,KOVAN MRT STATION
104,JLN BT MERAH,12,1967,BUKIT MERAH,104 JLN BT MERAH,160104,1.28102515462893,103.82446093445,0.6,TIONG BAHRU MRT STATION
104,JLN DUSUN,4,1980,KALLANG/WHAMPOA,104 JLN DUSUN,320104,1.32842530547543,103.844142365034,0.6,TOA PAYOH MRT STATION
104,JLN RAJAH,25,1983,KALLANG/WHAMPOA,104 JLN RAJAH,321104,1.32780496961457,103.853262284564,0.8,TOA PAYOH MRT STATION
104,JURONG EAST ST 13,4,1982,JURONG EAST,104 JURONG EAST ST 13,600104,1.33658465311802,103.737623303842,0.7,JURONG EAST MRT STATION
104,LENGKONG TIGA,9,1988,BEDOK,104 LENGKONG TIGA,410104,1.32563496745023,103.909815198327,0.6,KEMBANGAN MRT STATION
104,LOR 1 TOA PAYOH,10,1967,TAMPINES,104 LOR 1 TOA PAYOH,310104,1.34010887675625,103.849107848181,0.2,BRADDELL MRT STATION
104,PASIR RIS ST 12,11,1988,PASIR RIS,104 PASIR RIS ST 12,510104,1.36795278578738,103.958702642513,1.2,PASIR RIS MRT STATION
104,POTONG PASIR AVE 1,16,1984,TAMPINES,104 POTONG PASIR AVE 1,350104,1.3343391689203,103.869158899303,0.2,POTONG PASIR MRT STATION
104,RIVERVALE WALK,17,1997,SENGKANG,104 RIVERVALE WALK,540104,1.38262745864985,103.900929877213,0.2,KANGKAR LRT STATION
104,SERANGOON NTH AVE 1,4,1984,SERANGOON,104 SERANGOON NTH AVE 1,550104,1.37059316193953,103.871086801722,1.9,KOVAN MRT STATION
104,SPOTTISWOODE PK RD,25,1976,BUKIT MERAH,104 SPOTTISWOODE PK RD,080104,1.27442754696062,103.834878784712,0.9,OUTRAM PARK MRT STATION
104,TAMPINES ST 11,11,1982,TOA PAYOH,104 TAMPINES ST 11,520104,1.34720576651075,103.946641750013,0.9,TAMPINES WEST MRT STATION
104,TECK WHYE LANE,9,1988,CHOA CHU KANG,104 TECK WHYE LANE,680104,1.37708162127187,103.752870448301,0.1,TECK WHYE LRT STATION
104,TOWNER RD,11,1982,KALLANG/WHAMPOA,104 TOWNER RD,322104,1.31982354462646,103.860979745364,0.2,BOON KENG MRT STATION
104,WHAMPOA DR,19,1997,KALLANG/WHAMPOA,104 WHAMPOA DR,323104,1.3207995912383,103.853327785421,0.9,BOON KENG MRT STATION
104,WOODLANDS ST 13,13,1984,WOODLANDS,104 WOODLANDS ST 13,730104,1.43646587087026,103.781576865168,0.8,WOODLANDS MRT STATION
104A,ANG MO KIO ST 11,12,1994,ANG MO KIO,104A ANG MO KIO ST 11,560104,1.37182700854497,103.838803655863,0.2,MAYFLOWER MRT STATION
104A,BIDADARI PK DR,17,2020,TAMPINES,104A BIDADARI PK DR,341104,1.33532197788922,103.870933993338,0.4,POTONG PASIR MRT STATION
104A,CANBERRA ST,15,2017,SEMBAWANG,104A CANBERRA ST,751104,1.45035225780871,103.832262400576,0.8,CANBERRA MRT STATION
104A,DEPOT RD,25,1998,BUKIT MERAH,104A DEPOT RD,101104,1.28045561330579,103.812317740785,1.1,TELOK BLANGAH MRT STATION
104A,EDGEFIELD PLAINS,17,2001,PUNGGOL,104A EDGEFIELD PLAINS,821104,1.3968057047795,103.905054187798,0.3,COVE LRT STATION
104B,ANG MO KIO ST 11,12,1994,ANG MO KIO,104B ANG MO KIO ST 11,561104,1.37151151416054,103.838458787545,0.3,MAYFLOWER MRT STATION
104B,CANBERRA ST,15,2017,SEMBAWANG,104B CANBERRA ST,752104,1.45007421711069,103.831377046227,0.8,CANBERRA MRT STATION
104B,DEPOT RD,20,1998,BUKIT MERAH,104B DEPOT RD,102104,1.28049143987378,103.812100811742,1.1,TELOK BLANGAH MRT STATION
104B,EDGEFIELD PLAINS,17,2001,PUNGGOL,104B EDGEFIELD PLAINS,822104,1.39660886204199,103.905303792463,0.3,COVE LRT STATION
104C,CANBERRA ST,15,2017,SEMBAWANG,104C CANBERRA ST,753104,1.44970999451163,103.831775965127,0.7,CANBERRA MRT STATION
104D,CANBERRA ST,15,2017,SEMBAWANG,104D CANBERRA ST,754104,1.44985632437762,103.83236697954,0.8,CANBERRA MRT STATION
105,ALJUNIED CRES,12,1978,GEYLANG,105 ALJUNIED CRES,380105,1.31946862097465,103.882751492944,0.3,ALJUNIED MRT STATION
105,ANG MO KIO AVE 4,10,1977,ANG MO KIO,105 ANG MO KIO AVE 4,560105,1.37231328287072,103.837601112788,0.1,MAYFLOWER MRT STATION
105,BEDOK RESERVOIR RD,12,1985,BEDOK,105 BEDOK RESERVOIR RD,470105,1.32914437941094,103.909112780576,0.6,KAKI BUKIT MRT STATION
105,BEDOK NTH AVE 4,14,1976,BEDOK,105 BEDOK NTH AVE 4,460105,1.33372280929,103.936517719048,0.5,BEDOK RESERVOIR MRT STATION
105,BISHAN ST 12,9,1985,BISHAN,105 BISHAN ST 12,570105,1.34589493632505,103.847365252767,0.6,BRADDELL MRT STATION
105,BT BATOK CTRL,10,1984,BUKIT BATOK,105 BT BATOK CTRL,650105,1.3485726542005,103.747156223784,0.3,BUKIT BATOK MRT STATION
105,BT PURMEI RD,13,1982,BUKIT MERAH,105 BT PURMEI RD,090105,1.27248301325334,103.824703021719,0.9,HARBOURFRONT MRT STATION
105,CLEMENTI ST 12,4,1984,CLEMENTI,105 CLEMENTI ST 12,120105,1.32271179028812,103.76988810369,1.0,CLEMENTI MRT STATION
105,GANGSA RD,4,1986,BUKIT PANJANG,105 GANGSA RD,670105,1.37831242120574,103.767763308976,0.1,PETIR LRT STATION
105,HENDERSON CRES,24,1974,BUKIT MERAH,105 HENDERSON CRES,150105,1.29021420176947,103.822356844711,0.6,REDHILL MRT STATION
105,JLN BT MERAH,12,1967,BUKIT MERAH,105 JLN BT MERAH,160105,1.28063239751755,103.824935469367,0.6,TIONG BAHRU MRT STATION
105,JLN RAJAH,9,1983,KALLANG/WHAMPOA,105 JLN RAJAH,320105,1.32857909987613,103.85387252356,0.8,TOA PAYOH MRT STATION
105,JURONG EAST ST 13,12,1982,JURONG EAST,105 JURONG EAST ST 13,600105,1.33738746819329,103.738527627347,0.7,JURONG EAST MRT STATION
105,LENGKONG TIGA,4,1988,BEDOK,105 LENGKONG TIGA,410105,1.32564831471452,103.91011217937,0.6,KEMBANGAN MRT STATION
105,LOR 1 TOA PAYOH,10,1967,TAMPINES,105 LOR 1 TOA PAYOH,310105,1.3404226406096,103.849109442063,0.2,BRADDELL MRT STATION
105,PASIR RIS ST 12,11,1988,PASIR RIS,105 PASIR RIS ST 12,510105,1.36843792148695,103.957538790848,1.1,PASIR RIS MRT STATION
105,POTONG PASIR AVE 1,16,1984,TAMPINES,105 POTONG PASIR AVE 1,350105,1.33442373227683,103.868696835165,0.2,POTONG PASIR MRT STATION
105,RIVERVALE WALK,17,1997,SENGKANG,105 RIVERVALE WALK,540105,1.38215613071495,103.900711925224,0.3,KANGKAR LRT STATION
105,SERANGOON NTH AVE 1,13,1983,SERANGOON,105 SERANGOON NTH AVE 1,550105,1.37024745860601,103.870225980491,2.0,KOVAN MRT STATION
105,SIMEI ST 1,4,1987,TOA PAYOH,105 SIMEI ST 1,520105,1.34092459427981,103.950742498791,0.4,SIMEI MRT STATION
105,SPOTTISWOODE PK RD,25,1976,BUKIT MERAH,105 SPOTTISWOODE PK RD,080105,1.27380075624949,103.834482197156,1.0,OUTRAM PARK MRT STATION
105,TAMPINES ST 11,11,1982,TOA PAYOH,105 TAMPINES ST 11,521105,1.3480931246949,103.947177564477,0.8,TAMPINES MRT STATION
105,TECK WHYE LANE,12,1987,CHOA CHU KANG,105 TECK WHYE LANE,680105,1.37765001961331,103.7529943035,0.2,TECK WHYE LRT STATION
105,TOWNER RD,25,1984,KALLANG/WHAMPOA,105 TOWNER RD,321105,1.3208130428228,103.861346713506,0.3,BOON KENG MRT STATION
105,WOODLANDS ST 13,13,1984,WOODLANDS,105 WOODLANDS ST 13,730105,1.43684476168491,103.781579113316,0.8,WOODLANDS MRT STATION
105A,BIDADARI PK DR,17,2019,TAMPINES,105A BIDADARI PK DR,341105,1.33400699237548,103.870430572231,0.2,POTONG PASIR MRT STATION
105A,DEPOT RD,21,2016,BUKIT MERAH,105A DEPOT RD,101105,1.28107116546835,103.811405730352,1.1,REDHILL MRT STATION
105A,EDGEFIELD PLAINS,17,2001,PUNGGOL,105A EDGEFIELD PLAINS,821105,1.3969413315622,103.905729497383,0.2,COVE LRT STATION
105B,BIDADARI PK DR,17,2019,TAMPINES,105B BIDADARI PK DR,342105,1.33347403879152,103.870490405284,0.2,POTONG PASIR MRT STATION
105B,EDGEFIELD PLAINS,17,2001,PUNGGOL,105B EDGEFIELD PLAINS,822105,1.39720646427031,103.906002280084,0.2,COVE LRT STATION
105C,EDGEFIELD PLAINS,17,2001,PUNGGOL,105C EDGEFIELD PLAINS,823105,1.39767203537129,103.905598767902,0.2,COVE LRT STATION
105D,EDGEFIELD PLAINS,17,2001,PUNGGOL,105D EDGEFIELD PLAINS,824105,1.39717530895925,103.905229593145,0.2,COVE LRT STATION
106,ALJUNIED CRES,12,1978,GEYLANG,106 ALJUNIED CRES,380106,1.31905494962151,103.882900918125,0.3,ALJUNIED MRT STATION
106,ANG MO KIO AVE 4,11,1977,ANG MO KIO,106 ANG MO KIO AVE 4,560106,1.37193370323489,103.837486061851,0.2,MAYFLOWER MRT STATION
106,BEDOK NTH AVE 4,13,1977,BEDOK,106 BEDOK NTH AVE 4,460106,1.33445895034228,103.937087136194,0.5,BEDOK RESERVOIR MRT STATION
106,BEDOK RESERVOIR RD,12,1985,BEDOK,106 BEDOK RESERVOIR RD,470106,1.32950152189669,103.909381688756,0.6,KAKI BUKIT MRT STATION
106,BISHAN ST 12,13,1985,BISHAN,106 BISHAN ST 12,570106,1.34610070068315,103.847847191353,0.6,BRADDELL MRT STATION
106,BT PURMEI RD,13,1983,BUKIT MERAH,106 BT PURMEI RD,090106,1.2729893703256,103.825626826099,1.0,HARBOURFRONT MRT STATION
106,BT BATOK CTRL,8,1984,BUKIT BATOK,106 BT BATOK CTRL,650106,1.3482223088624,103.74718849849,0.3,BUKIT BATOK MRT STATION
106,C'WEALTH CRES,10,1964,QUEENSTOWN,106 C'WEALTH CRES,140106,1.3082260330781,103.799591309893,0.5,HOLLAND VILLAGE MRT STATION
106,GANGSA RD,10,1986,BUKIT PANJANG,106 GANGSA RD,670106,1.3779019997366,103.767412279054,0.1,PETIR LRT STATION
106,HENDERSON CRES,14,1973,BUKIT MERAH,106 HENDERSON CRES,150106,1.28942607947152,103.822276781927,0.6,REDHILL MRT STATION
106,HOUGANG AVE 1,4,1982,HOUGANG,106 HOUGANG AVE 1,530106,1.3537029714401,103.890680792553,1.0,KOVAN MRT STATION
106,JLN RAJAH,10,1983,KALLANG/WHAMPOA,106 JLN RAJAH,321106,1.32847655795117,103.854698874866,0.9,TOA PAYOH MRT STATION
106,JLN BT MERAH,12,1967,BUKIT MERAH,106 JLN BT MERAH,160106,1.28024258715197,103.824523574131,0.7,TIONG BAHRU MRT STATION
106,JLN DUSUN,9,1980,KALLANG/WHAMPOA,106 JLN DUSUN,320106,1.32855771177594,103.844796773619,0.5,TOA PAYOH MRT STATION
106,JURONG EAST ST 13,25,1982,JURONG EAST,106 JURONG EAST ST 13,600106,1.33724965052823,103.737674650927,0.7,CHINESE GARDEN MRT STATION
106,LENGKONG TIGA,9,1988,BEDOK,106 LENGKONG TIGA,410106,1.32508845931345,103.91000876961,0.5,KEMBANGAN MRT STATION
106,LOR 1 TOA PAYOH,10,1967,TAMPINES,106 LOR 1 TOA PAYOH,310106,1.34042195552491,103.848185018749,0.1,BRADDELL MRT STATION
106,PASIR RIS ST 12,13,1988,PASIR RIS,106 PASIR RIS ST 12,510106,1.36801255048337,103.95765313312,1.1,PASIR RIS MRT STATION
106,POTONG PASIR AVE 1,4,1983,TAMPINES,106 POTONG PASIR AVE 1,350106,1.33410033566662,103.868171273744,0.2,POTONG PASIR MRT STATION
106,RIVERVALE WALK,17,1998,SENGKANG,106 RIVERVALE WALK,540106,1.38249729178426,103.900321341916,0.3,KANGKAR LRT STATION
106,SERANGOON NTH AVE 1,12,1983,SERANGOON,106 SERANGOON NTH AVE 1,550106,1.37024462107298,103.87082295041,1.9,KOVAN MRT STATION
106,SIMEI ST 1,11,1987,TOA PAYOH,106 SIMEI ST 1,520106,1.34188521733435,103.950833481196,0.3,SIMEI MRT STATION
106,SPOTTISWOODE PK RD,25,1976,BUKIT MERAH,106 SPOTTISWOODE PK RD,080106,1.27356673846343,103.83405815603,1.1,OUTRAM PARK MRT STATION
106,TAMPINES ST 11,11,1983,TOA PAYOH,106 TAMPINES ST 11,521106,1.34753919206552,103.947675427986,0.9,SIMEI MRT STATION
106,TECK WHYE LANE,12,1987,CHOA CHU KANG,106 TECK WHYE LANE,680106,1.37795798795128,103.752931630674,0.2,TECK WHYE LRT STATION
106,TOWNER RD,11,1983,KALLANG/WHAMPOA,106 TOWNER RD,322106,1.32102000991534,103.860997833137,0.3,BOON KENG MRT STATION
106,WOODLANDS ST 13,4,1984,WOODLANDS,106 WOODLANDS ST 13,730106,1.4367694338717,103.782224172938,0.8,WOODLANDS MRT STATION
106,YISHUN RING RD,4,1984,YISHUN,106 YISHUN RING RD,760106,1.43147861432349,103.827452004212,0.8,YISHUN MRT STATION
106A,BIDADARI PK DR,17,2019,TAMPINES,106A BIDADARI PK DR,341106,1.33413899991746,103.871259715052,0.3,POTONG PASIR MRT STATION
106A,CANBERRA ST,15,2016,SEMBAWANG,106A CANBERRA ST,751106,1.44850335223601,103.833100432078,0.7,CANBERRA MRT STATION
106A,DEPOT RD,25,1998,BUKIT MERAH,106A DEPOT RD,101106,1.28061364977894,103.810967870883,1.1,TELOK BLANGAH MRT STATION
106A,PUNGGOL FIELD,17,2001,PUNGGOL,106A PUNGGOL FIELD,821106,1.3966048607668,103.90834413446,0.1,MERIDIAN LRT STATION
106B,BIDADARI PK DR,17,2019,TAMPINES,106B BIDADARI PK DR,342106,1.33364211083176,103.871164760412,0.3,POTONG PASIR MRT STATION
106B,CANBERRA ST,15,2016,SEMBAWANG,106B CANBERRA ST,752106,1.44803885202675,103.833228909288,0.7,CANBERRA MRT STATION
106B,DEPOT RD,20,1998,BUKIT MERAH,106B DEPOT RD,102106,1.28064950442563,103.810750913525,1.1,TELOK BLANGAH MRT STATION
106B,PUNGGOL FIELD,17,2001,PUNGGOL,106B PUNGGOL FIELD,822106,1.39709453228144,103.907955363138,0.1,MERIDIAN LRT STATION
106C,PUNGGOL FIELD,17,2001,PUNGGOL,106C PUNGGOL FIELD,823106,1.39736664207497,103.907562230122,0.2,MERIDIAN LRT STATION
106D,PUNGGOL FIELD,17,2001,PUNGGOL,106D PUNGGOL FIELD,824106,1.39762606734892,103.907358127148,0.2,MERIDIAN LRT STATION
107,ALJUNIED CRES,12,1980,GEYLANG,107 ALJUNIED CRES,380107,1.31896465338811,103.884287246879,0.3,ALJUNIED MRT STATION
107,ANG MO KIO AVE 4,11,1977,ANG MO KIO,107 ANG MO KIO AVE 4,560107,1.37138400081003,103.837381409794,0.2,MAYFLOWER MRT STATION
107,BEDOK NTH RD,12,1976,BEDOK,107 BEDOK NTH RD,460107,1.33231740745783,103.936301267285,0.6,BEDOK RESERVOIR MRT STATION
107,BEDOK RESERVOIR RD,13,1985,BEDOK,107 BEDOK RESERVOIR RD,470107,1.32987028916159,103.909220387915,0.6,KAKI BUKIT MRT STATION
107,BISHAN ST 12,13,1985,BISHAN,107 BISHAN ST 12,570107,1.34641761420969,103.847920706844,0.6,BISHAN MRT STATION
107,BT PURMEI RD,13,1982,BUKIT MERAH,107 BT PURMEI RD,090107,1.27310165475122,103.824508572172,1.0,HARBOURFRONT MRT STATION
107,BT BATOK WEST AVE 6,10,1984,BUKIT BATOK,107 BT BATOK WEST AVE 6,650107,1.34781088479752,103.746608758355,0.4,BUKIT BATOK MRT STATION
107,C'WEALTH CRES,10,1964,QUEENSTOWN,107 C'WEALTH CRES,140107,1.30786244653945,103.799312254354,0.5,HOLLAND VILLAGE MRT STATION
107,GANGSA RD,13,1986,BUKIT PANJANG,107 GANGSA RD,670107,1.37798469700849,103.766714651133,0.0,PETIR LRT STATION
107,JLN RAJAH,13,1983,KALLANG/WHAMPOA,107 JLN RAJAH,320107,1.32785332684887,103.854993724632,1.0,TOA PAYOH MRT STATION
107,JLN BT MERAH,12,1967,BUKIT MERAH,107 JLN BT MERAH,160107,1.27983690191197,103.824757769108,0.7,TIONG BAHRU MRT STATION
107,JURONG EAST ST 13,12,1981,JURONG EAST,107 JURONG EAST ST 13,600107,1.33778634539959,103.738131877539,0.7,CHINESE GARDEN MRT STATION
107,LENGKONG TIGA,4,1988,BEDOK,107 LENGKONG TIGA,410107,1.32495459884083,103.910175149612,0.5,KEMBANGAN MRT STATION
107,LOR 1 TOA PAYOH,10,1968,TAMPINES,107 LOR 1 TOA PAYOH,310107,1.34121948900326,103.847288831588,0.1,BRADDELL MRT STATION
107,PASIR RIS ST 12,13,1988,PASIR RIS,107 PASIR RIS ST 12,510107,1.36750966709317,103.957518917808,1.1,PASIR RIS MRT STATION
107,POTONG PASIR AVE 1,14,1984,TAMPINES,107 POTONG PASIR AVE 1,350107,1.33470936894148,103.86841323904,0.2,POTONG PASIR MRT STATION
107,RIVERVALE WALK,17,1998,SENGKANG,107 RIVERVALE WALK,540107,1.38300501325196,103.900272453522,0.2,KANGKAR LRT STATION
107,SERANGOON NTH AVE 1,13,1984,SERANGOON,107 SERANGOON NTH AVE 1,550107,1.36990039748774,103.870224885633,1.9,KOVAN MRT STATION
107,SIMEI ST 1,11,1987,TOA PAYOH,107 SIMEI ST 1,520107,1.3421611396727,103.950489942022,0.4,SIMEI MRT STATION
107,SPOTTISWOODE PK RD,25,1976,BUKIT MERAH,107 SPOTTISWOODE PK RD,080107,1.27359495858443,103.834917864208,1.0,OUTRAM PARK MRT STATION
107,TAMPINES ST 11,10,1983,TOA PAYOH,107 TAMPINES ST 11,521107,1.34836421842072,103.948158723814,0.9,TAMPINES MRT STATION
107,TECK WHYE LANE,13,1988,CHOA CHU KANG,107 TECK WHYE LANE,680107,1.37805538148223,103.753588247554,0.2,TECK WHYE LRT STATION
107,TOWNER RD,25,1982,KALLANG/WHAMPOA,107 TOWNER RD,321107,1.31979508625986,103.860435814245,0.2,BOON KENG MRT STATION
107,WOODLANDS ST 13,4,1984,WOODLANDS,107 WOODLANDS ST 13,730107,1.43729843225252,103.782227077422,0.8,WOODLANDS MRT STATION
107,YISHUN RING RD,11,1981,YISHUN,107 YISHUN RING RD,760107,1.4322180811837,103.827520197458,0.9,YISHUN MRT STATION
107A,BIDADARI PK DR,16,2021,TAMPINES,107A BIDADARI PK DR,341107,1.33477976786287,103.872399131107,0.4,POTONG PASIR MRT STATION
107A,CANBERRA ST,15,2017,SEMBAWANG,107A CANBERRA ST,751107,1.44990474622,103.832979240964,0.8,CANBERRA MRT STATION
107A,EDGEFIELD PLAINS,17,2001,PUNGGOL,107A EDGEFIELD PLAINS,821107,1.39719879396476,103.906825785664,0.2,COVE LRT STATION
107B,BIDADARI PK DR,16,2021,TAMPINES,107B BIDADARI PK DR,342107,1.33437155153983,103.872117221909,0.4,POTONG PASIR MRT STATION
107B,CANBERRA ST,15,2017,SEMBAWANG,107B CANBERRA ST,752107,1.44916516333167,103.833497265983,0.8,CANBERRA MRT STATION
107B,EDGEFIELD PLAINS,17,2001,PUNGGOL,107B EDGEFIELD PLAINS,822107,1.39683723523598,103.907248151565,0.2,MERIDIAN LRT STATION
107C,CANBERRA ST,15,2017,SEMBAWANG,107C CANBERRA ST,753107,1.44855782306648,103.833864786,0.8,CANBERRA MRT STATION
107C,EDGEFIELD PLAINS,17,2001,PUNGGOL,107C EDGEFIELD PLAINS,823107,1.39662152089139,103.907600724822,0.2,MERIDIAN LRT STATION
107D,EDGEFIELD PLAINS,17,2001,PUNGGOL,107D EDGEFIELD PLAINS,824107,1.39623803491797,103.908007315128,0.1,MERIDIAN LRT STATION
108,ALJUNIED CRES,12,1980,GEYLANG,108 ALJUNIED CRES,380108,1.31917515239477,103.885321594343,0.4,ALJUNIED MRT STATION
108,ANG MO KIO AVE 4,12,1978,ANG MO KIO,108 ANG MO KIO AVE 4,560108,1.37096635222625,103.838201940326,0.3,MAYFLOWER MRT STATION
108,BEDOK RESERVOIR RD,12,1985,BEDOK,108 BEDOK RESERVOIR RD,470108,1.33023193004172,103.909386972458,0.5,KAKI BUKIT MRT STATION
108,BEDOK NTH RD,12,1976,BEDOK,108 BEDOK NTH RD,460108,1.33274009226511,103.936223519694,0.5,BEDOK RESERVOIR MRT STATION
108,BISHAN ST 12,4,1985,BISHAN,108 BISHAN ST 12,570108,1.34671498920224,103.847398357544,0.6,BISHAN MRT STATION
108,BT BATOK WEST AVE 6,8,1984,BUKIT BATOK,108 BT BATOK WEST AVE 6,650108,1.34744385349941,103.746502064421,0.4,BUKIT BATOK MRT STATION
108,BT PURMEI RD,12,1984,BUKIT MERAH,108 BT PURMEI RD,090108,1.2733573140352,103.825345821846,1.0,HARBOURFRONT MRT STATION
108,C'WEALTH CRES,10,1964,QUEENSTOWN,108 C'WEALTH CRES,140108,1.30754731967127,103.799088583204,0.5,HOLLAND VILLAGE MRT STATION
108,GANGSA RD,10,1986,BUKIT PANJANG,108 GANGSA RD,670108,1.37759685167022,103.767227214144,0.0,PETIR LRT STATION
108,HOUGANG AVE 1,4,1982,HOUGANG,108 HOUGANG AVE 1,530108,1.35277393315533,103.890093177026,1.0,KOVAN MRT STATION
108,JLN BT MERAH,10,1983,BUKIT MERAH,108 JLN BT MERAH,160108,1.27922008833835,103.825441382185,0.7,TIONG BAHRU MRT STATION
108,JLN RAJAH,11,1983,KALLANG/WHAMPOA,108 JLN RAJAH,320108,1.32838935725024,103.855750872335,1.0,TOA PAYOH MRT STATION
108,JURONG EAST ST 13,12,1982,JURONG EAST,108 JURONG EAST ST 13,600108,1.33828303068105,103.737102099236,0.5,CHINESE GARDEN MRT STATION
108,LENGKONG TIGA,9,1988,BEDOK,108 LENGKONG TIGA,410108,1.32456370966495,103.91013096847,0.5,KEMBANGAN MRT STATION
108,LOR 1 TOA PAYOH,10,1969,TAMPINES,108 LOR 1 TOA PAYOH,310108,1.34155252910062,103.847295147125,0.1,BRADDELL MRT STATION
108,MCNAIR RD,15,1986,KALLANG/WHAMPOA,108 MCNAIR RD,321108,1.3216190383169,103.859382719506,0.4,BOON KENG MRT STATION
108,PASIR RIS ST 12,13,1988,PASIR RIS,108 PASIR RIS ST 12,510108,1.36747877864087,103.95701769761,1.1,PASIR RIS MRT STATION
108,POTONG PASIR AVE 1,14,1984,TAMPINES,108 POTONG PASIR AVE 1,350108,1.33472004322162,103.867928446438,0.2,POTONG PASIR MRT STATION
108,RIVERVALE WALK,17,1998,SENGKANG,108 RIVERVALE WALK,540108,1.38281168591309,103.899782887436,0.3,KANGKAR LRT STATION
108,SERANGOON NTH AVE 1,12,1983,SERANGOON,108 SERANGOON NTH AVE 1,550108,1.36990140336943,103.87120683593,1.8,KOVAN MRT STATION
108,SIMEI ST 1,11,1987,TOA PAYOH,108 SIMEI ST 1,520108,1.34301954085884,103.951007442775,0.3,SIMEI MRT STATION
108,TAMPINES ST 11,11,1983,TOA PAYOH,108 TAMPINES ST 11,521108,1.34786646438205,103.94856161626,0.8,SIMEI MRT STATION
108,TECK WHYE LANE,13,1988,CHOA CHU KANG,108 TECK WHYE LANE,680108,1.378324137359,103.752950750544,0.2,TECK WHYE LRT STATION
108,WOODLANDS ST 13,13,1984,WOODLANDS,108 WOODLANDS ST 13,730108,1.43721908735525,103.781576753293,0.8,WOODLANDS MRT STATION
108,YISHUN RING RD,9,1981,YISHUN,108 YISHUN RING RD,760108,1.43232355080911,103.829071971177,0.7,YISHUN MRT STATION
108A,BIDADARI PK DR,16,2021,TAMPINES,108A BIDADARI PK DR,341108,1.33435487321818,103.871686802252,0.3,POTONG PASIR MRT STATION
108A,CANBERRA WALK,14,2017,SEMBAWANG,108A CANBERRA WALK,751108,1.44776056626366,103.831274677849,0.5,CANBERRA MRT STATION
108B,BIDADARI PK DR,17,2021,TAMPINES,108B BIDADARI PK DR,342108,1.33367208421363,103.872010744965,0.4,POTONG PASIR MRT STATION
108B,CANBERRA WALK,14,2017,SEMBAWANG,108B CANBERRA WALK,752108,1.44818951673352,103.831856910403,0.6,CANBERRA MRT STATION
108B,MCNAIR RD,30,2003,KALLANG/WHAMPOA,108B MCNAIR RD,323108,1.31998124429925,103.859005144914,0.3,BOON KENG MRT STATION
108C,CANBERRA WALK,13,2017,SEMBAWANG,108C CANBERRA WALK,753108,1.44735330149199,103.831796158318,0.5,CANBERRA MRT STATION
108C,MCNAIR RD,30,2003,KALLANG/WHAMPOA,108C MCNAIR RD,324108,1.31984417513752,103.859462494536,0.3,BOON KENG MRT STATION
109,ALJUNIED CRES,12,1980,GEYLANG,109 ALJUNIED CRES,380109,1.31939291785822,103.884439876207,0.4,ALJUNIED MRT STATION
109,ANG MO KIO AVE 4,12,1978,ANG MO KIO,109 ANG MO KIO AVE 4,560109,1.3700965375834,103.837687766047,0.4,MAYFLOWER MRT STATION
109,BEDOK NTH RD,12,1976,BEDOK,109 BEDOK NTH RD,460109,1.33205316021213,103.93493510232,0.5,BEDOK RESERVOIR MRT STATION
109,BEDOK RESERVOIR RD,4,1985,BEDOK,109 BEDOK RESERVOIR RD,470109,1.32963136613535,103.909902161479,0.6,KAKI BUKIT MRT STATION
109,BISHAN ST 12,13,1985,BISHAN,109 BISHAN ST 12,570109,1.34675059587742,103.847990168368,0.5,BISHAN MRT STATION
109,BT BATOK WEST AVE 6,11,1984,BUKIT BATOK,109 BT BATOK WEST AVE 6,650109,1.34700376747987,103.746170410388,0.5,BUKIT BATOK MRT STATION
109,BT PURMEI RD,12,1984,BUKIT MERAH,109 BT PURMEI RD,090109,1.27392939929265,103.825310761145,1.1,HARBOURFRONT MRT STATION
109,C'WEALTH CRES,10,1964,QUEENSTOWN,109 C'WEALTH CRES,140109,1.30724943075855,103.798938288338,0.5,COMMONWEALTH MRT STATION
109,CLEMENTI ST 11,4,1984,CLEMENTI,109 CLEMENTI ST 11,120109,1.32189101790957,103.770595265822,1.0,CLEMENTI MRT STATION
109,GANGSA RD,4,1986,BUKIT PANJANG,109 GANGSA RD,670109,1.37736736489734,103.767748758874,0.1,PETIR LRT STATION
109,HOUGANG AVE 1,13,1982,HOUGANG,109 HOUGANG AVE 1,530109,1.35532858945575,103.889376316331,0.7,KOVAN MRT STATION
109,JLN BT MERAH,13,1983,BUKIT MERAH,109 JLN BT MERAH,160109,1.27942671435022,103.826086916123,0.7,TIONG BAHRU MRT STATION
109,JURONG EAST ST 13,25,1981,JURONG EAST,109 JURONG EAST ST 13,600109,1.3383617052828,103.735911158508,0.5,CHINESE GARDEN MRT STATION
109,LENGKONG TIGA,14,1988,BEDOK,109 LENGKONG TIGA,410109,1.32458076244969,103.910697531082,0.5,KEMBANGAN MRT STATION
109,LOR 1 TOA PAYOH,10,1968,TAMPINES,109 LOR 1 TOA PAYOH,310109,1.34123820692527,103.846389510905,0.1,BRADDELL MRT STATION
109,MCNAIR RD,15,1986,KALLANG/WHAMPOA,109 MCNAIR RD,320109,1.32142037879584,103.859100345051,0.4,BOON KENG MRT STATION
109,PASIR RIS ST 11,13,1990,PASIR RIS,109 PASIR RIS ST 11,510109,1.3684636800666,103.956009070114,0.9,PASIR RIS MRT STATION
109,POTONG PASIR AVE 1,4,1983,TAMPINES,109 POTONG PASIR AVE 1,350109,1.33486395185077,103.867411589518,0.3,POTONG PASIR MRT STATION
109,RIVERVALE WALK,17,1998,SENGKANG,109 RIVERVALE WALK,540109,1.38328317106655,103.899641368712,0.3,RANGGUNG LRT STATION
109,SERANGOON NTH AVE 1,13,1984,SERANGOON,109 SERANGOON NTH AVE 1,550109,1.36943351823831,103.870511407041,1.9,KOVAN MRT STATION
109,SIMEI ST 1,11,1987,TOA PAYOH,109 SIMEI ST 1,520109,1.34225792802261,103.950128354135,0.4,SIMEI MRT STATION
109,SPOTTISWOODE PK RD,24,1977,BUKIT MERAH,109 SPOTTISWOODE PK RD,080109,1.27403187291578,103.83665274606,0.9,OUTRAM PARK MRT STATION
109,TAMPINES ST 11,11,1983,TOA PAYOH,109 TAMPINES ST 11,521109,1.34740780737329,103.948811827647,0.8,SIMEI MRT STATION
109,TECK WHYE LANE,11,1988,CHOA CHU KANG,109 TECK WHYE LANE,680109,1.37865989251211,103.752077659463,0.3,TECK WHYE LRT STATION
109,WHAMPOA RD,14,1996,KALLANG/WHAMPOA,109 WHAMPOA RD,321109,1.32714817577656,103.855700914421,1.1,TOA PAYOH MRT STATION
109,WOODLANDS ST 13,4,1984,WOODLANDS,109 WOODLANDS ST 13,730109,1.43752043427047,103.780953594197,0.9,MARSILING MRT STATION
109,YISHUN RING RD,11,1981,YISHUN,109 YISHUN RING RD,760109,1.43279905704561,103.82864618104,0.8,YISHUN MRT STATION
109A,BIDADARI PK DR,17,2021,TAMPINES,109A BIDADARI PK DR,341109,1.33345534714887,103.872323897429,0.4,POTONG PASIR MRT STATION
109A,CANBERRA WALK,13,2021,SEMBAWANG,109A CANBERRA WALK,751109,1.4480211764862,103.830136528853,0.5,CANBERRA MRT STATION
109A,DEPOT RD,25,2004,BUKIT MERAH,109A DEPOT RD,101109,1.28095771309777,103.809440153696,1.1,TELOK BLANGAH MRT STATION
109A,EDGEDALE PLAINS,17,2001,PUNGGOL,109A EDGEDALE PLAINS,821109,1.39472186392182,103.909873807721,0.2,MERIDIAN LRT STATION
109B,BIDADARI PK DR,17,2021,TAMPINES,109B BIDADARI PK DR,342109,1.33340680739937,103.872670321849,0.4,POTONG PASIR MRT STATION
109B,CANBERRA WALK,13,2021,SEMBAWANG,109B CANBERRA WALK,752109,1.4478383335801,103.829664870604,0.5,CANBERRA MRT STATION
109B,DEPOT RD,25,2004,BUKIT MERAH,109B DEPOT RD,102109,1.28099937159398,103.809225279521,1.1,TELOK BLANGAH MRT STATION
109B,EDGEDALE PLAINS,17,2001,PUNGGOL,109B EDGEDALE PLAINS,822109,1.39495696200868,103.909634230948,0.2,MERIDIAN LRT STATION
109C,CANBERRA WALK,13,2021,SEMBAWANG,109C CANBERRA WALK,753109,1.44833180099522,103.829335079723,0.5,CANBERRA MRT STATION
109C,EDGEDALE PLAINS,17,2001,PUNGGOL,109C EDGEDALE PLAINS,823109,1.39517271989093,103.909281605641,0.2,MERIDIAN LRT STATION
109D,CANBERRA WALK,13,2021,SEMBAWANG,109D CANBERRA WALK,754109,1.44904350326715,103.829565161555,0.6,CANBERRA MRT STATION
109D,EDGEDALE PLAINS,17,2001,PUNGGOL,109D EDGEDALE PLAINS,824109,1.39552991291305,103.908859627789,0.1,MERIDIAN LRT STATION
11,CANTONMENT CL,30,2000,BUKIT MERAH,11 CANTONMENT CL,080011,1.27442604746069,103.839671514269,0.7,TANJONG PAGAR MRT STATION
11,CHAI CHEE RD,15,1999,BEDOK,11 CHAI CHEE RD,460011,1.32691137466792,103.924883893296,0.6,BEDOK MRT STATION
11,EUNOS CRES,16,1976,GEYLANG,11 EUNOS CRES,400011,1.32180028934437,103.904424346286,0.3,EUNOS MRT STATION
11,FARRER PK RD,30,2002,KALLANG/WHAMPOA,11 FARRER PK RD,210011,1.31236768241476,103.852109307152,0.4,FARRER PARK MRT STATION
11,HAIG RD,13,1976,GEYLANG,11 HAIG RD,430011,1.31483626965284,103.896637295254,0.6,PAYA LEBAR MRT STATION
11,HOLLAND DR,22,1974,QUEENSTOWN,11 HOLLAND DR,278859,1.31419089884465,103.782719704956,0.6,DOVER MRT STATION
11,JLN BATU,12,1966,KALLANG/WHAMPOA,11 JLN BATU,431011,1.30169639051101,103.882578686361,0.5,MOUNTBATTEN MRT STATION
11,JLN BT MERAH,4,1986,BUKIT MERAH,11 JLN BT MERAH,150011,1.28662190407489,103.808963346663,0.9,QUEENSTOWN MRT STATION
11,JOO SENG RD,20,1982,TAMPINES,11 JOO SENG RD,360011,1.33500895047711,103.880706259667,0.8,TAI SENG MRT STATION
11,LOR 8 TOA PAYOH,16,1996,TAMPINES,11 LOR 8 TOA PAYOH,310011,1.33723344302177,103.858841063408,1.2,POTONG PASIR MRT STATION
11,MARSILING DR,22,1975,WOODLANDS,11 MARSILING DR,730011,1.44039399880253,103.777942285238,0.9,MARSILING MRT STATION
11,PINE CL,19,1998,GEYLANG,11 PINE CL,391011,1.30811264174982,103.882693800726,0.2,MOUNTBATTEN MRT STATION
11,ST. GEORGE'S RD,12,1984,KALLANG/WHAMPOA,11 ST. GEORGE'S RD,320011,1.32292326712558,103.863230452849,0.6,BOON KENG MRT STATION
11,TECK WHYE LANE,13,1977,CHOA CHU KANG,11 TECK WHYE LANE,680011,1.37976221059279,103.754969354123,0.4,TECK WHYE LRT STATION
11,TOH YI DR,11,1988,BUKIT TIMAH,11 TOH YI DR,590011,1.33800261167656,103.77260327239,0.5,BEAUTY WORLD MRT STATION
11,UPP BOON KENG RD,16,1973,KALLANG/WHAMPOA,11 UPP BOON KENG RD,380011,1.31423937033551,103.870914031459,0.3,KALLANG MRT STATION
11,YORK HILL,12,1969,CENTRAL AREA,11 YORK HILL,162011,1.28726393994064,103.838030276418,0.5,HAVELOCK MRT STATION
110,ALJUNIED CRES,12,1979,GEYLANG,110 ALJUNIED CRES,380110,1.31997674731215,103.884439316163,0.4,ALJUNIED MRT STATION
110,ANG MO KIO AVE 4,12,1977,ANG MO KIO,110 ANG MO KIO AVE 4,560110,1.37045937010888,103.837419259859,0.3,MAYFLOWER MRT STATION
110,BEDOK RESERVOIR RD,12,1985,BEDOK,110 BEDOK RESERVOIR RD,470110,1.33014480390561,103.910318002341,0.5,KAKI BUKIT MRT STATION
110,BEDOK NTH RD,12,1976,BEDOK,110 BEDOK NTH RD,460110,1.33247206352435,103.934860475522,0.5,BEDOK RESERVOIR MRT STATION
110,BISHAN ST 12,9,1985,BISHAN,110 BISHAN ST 12,570110,1.34740957043624,103.848054589423,0.5,BISHAN MRT STATION
110,BT PURMEI RD,12,1984,BUKIT MERAH,110 BT PURMEI RD,090110,1.27380415706758,103.827057699596,1.2,HARBOURFRONT MRT STATION
110,BT BATOK WEST AVE 6,25,1984,BUKIT BATOK,110 BT BATOK WEST AVE 6,650110,1.34754443877804,103.745796780836,0.5,BUKIT BATOK MRT STATION
110,C'WEALTH CRES,10,1964,QUEENSTOWN,110 C'WEALTH CRES,140110,1.30679892406231,103.798657169107,0.5,COMMONWEALTH MRT STATION
110,CLEMENTI ST 13,4,1983,CLEMENTI,110 CLEMENTI ST 13,120110,1.32284507823139,103.770898772473,1.1,CLEMENTI MRT STATION
110,GANGSA RD,13,1986,BUKIT PANJANG,110 GANGSA RD,670110,1.3778637208368,103.768139168585,0.2,PETIR LRT STATION
110,HOUGANG AVE 1,11,1982,HOUGANG,110 HOUGANG AVE 1,530110,1.35480542424831,103.889614585265,0.8,KOVAN MRT STATION
110,JLN BT MERAH,12,1969,BUKIT MERAH,110 JLN BT MERAH,160110,1.27974755603932,103.826698196427,0.7,TIONG BAHRU MRT STATION
110,JURONG EAST ST 13,16,1981,JURONG EAST,110 JURONG EAST ST 13,600110,1.33887088246403,103.736218506114,0.4,CHINESE GARDEN MRT STATION
110,LENGKONG TIGA,7,1988,BEDOK,110 LENGKONG TIGA,410110,1.323653452481,103.910853623161,0.4,KEMBANGAN MRT STATION
110,LOR 1 TOA PAYOH,10,1967,TAMPINES,110 LOR 1 TOA PAYOH,310110,1.34155275067394,103.846385947783,0.2,BRADDELL MRT STATION
110,MCNAIR RD,11,1986,KALLANG/WHAMPOA,110 MCNAIR RD,320110,1.32207919748314,103.859079081313,0.5,BOON KENG MRT STATION
110,PASIR RIS ST 11,11,1989,PASIR RIS,110 PASIR RIS ST 11,510110,1.36877568746945,103.956300375904,0.9,PASIR RIS MRT STATION
110,RIVERVALE WALK,17,1998,SENGKANG,110 RIVERVALE WALK,540110,1.38349233528457,103.900312363452,0.2,KANGKAR LRT STATION
110,SERANGOON NTH AVE 1,4,1984,SERANGOON,110 SERANGOON NTH AVE 1,550110,1.36938351007707,103.8714075184,1.8,KOVAN MRT STATION
110,SIMEI ST 1,4,1987,TOA PAYOH,110 SIMEI ST 1,520110,1.34275276797807,103.950195189768,0.4,SIMEI MRT STATION
110,SPOTTISWOODE PK RD,24,1977,BUKIT MERAH,110 SPOTTISWOODE PK RD,081110,1.2736382341353,103.836420334733,1.0,OUTRAM PARK MRT STATION
110,TAMPINES ST 11,11,1983,TOA PAYOH,110 TAMPINES ST 11,521110,1.34694662248116,103.949306963291,0.7,SIMEI MRT STATION
110,TECK WHYE LANE,12,1987,CHOA CHU KANG,110 TECK WHYE LANE,680110,1.37823695284901,103.752208325828,0.3,TECK WHYE LRT STATION
110,WHAMPOA RD,14,1996,KALLANG/WHAMPOA,110 WHAMPOA RD,321110,1.32682122581121,103.855890714758,1.1,TOA PAYOH MRT STATION
110,WOODLANDS ST 13,13,1984,WOODLANDS,110 WOODLANDS ST 13,730110,1.43759759979085,103.781575573323,0.8,WOODLANDS MRT STATION
110,YISHUN RING RD,16,1985,YISHUN,110 YISHUN RING RD,760110,1.43376160343539,103.829006129834,0.8,YISHUN MRT STATION
110A,BIDADARI PK DR,16,2021,TAMPINES,110A BIDADARI PK DR,341110,1.33348416178983,103.873147176611,0.5,POTONG PASIR MRT STATION
110A,DEPOT RD,26,2016,BUKIT MERAH,110A DEPOT RD,101110,1.28142824815036,103.809242812919,1.2,TELOK BLANGAH MRT STATION
110A,PUNGGOL FIELD,17,2001,PUNGGOL,110A PUNGGOL FIELD,821110,1.39612400306258,103.909283681189,0.1,MERIDIAN LRT STATION
110B,BIDADARI PK DR,16,2021,TAMPINES,110B BIDADARI PK DR,342110,1.33406825429408,103.873265936576,0.5,POTONG PASIR MRT STATION
110B,PUNGGOL FIELD,17,2001,PUNGGOL,110B PUNGGOL FIELD,822110,1.39566023887701,103.909627012363,0.1,MERIDIAN LRT STATION
110C,PUNGGOL FIELD,17,2001,PUNGGOL,110C PUNGGOL FIELD,823110,1.39539733228908,103.910033984669,0.2,MERIDIAN LRT STATION
110D,PUNGGOL FIELD,17,2001,PUNGGOL,110D PUNGGOL FIELD,824110,1.39500071174513,103.910206023671,0.2,MERIDIAN LRT STATION
111,ALJUNIED CRES,12,1977,GEYLANG,111 ALJUNIED CRES,380111,1.32039727554777,103.884246841453,0.5,ALJUNIED MRT STATION
111,ANG MO KIO AVE 4,12,1977,ANG MO KIO,111 ANG MO KIO AVE 4,560111,1.37085148985913,103.837298157413,0.3,MAYFLOWER MRT STATION
111,BEDOK NTH RD,13,1977,BEDOK,111 BEDOK NTH RD,460111,1.33145574028188,103.935458644142,0.6,BEDOK RESERVOIR MRT STATION
111,BEDOK RESERVOIR RD,4,1985,BEDOK,111 BEDOK RESERVOIR RD,470111,1.32980763743003,103.910093553419,0.6,KAKI BUKIT MRT STATION
111,BISHAN ST 12,13,1985,BISHAN,111 BISHAN ST 12,570111,1.34706752664279,103.848063665404,0.5,BISHAN MRT STATION
111,BT BATOK WEST AVE 6,25,1984,BUKIT BATOK,111 BT BATOK WEST AVE 6,650111,1.34840644346954,103.745994934101,0.5,BUKIT BATOK MRT STATION
111,BT PURMEI RD,16,1984,BUKIT MERAH,111 BT PURMEI RD,090111,1.27439718126241,103.827239610439,1.2,HARBOURFRONT MRT STATION
111,C'WEALTH CRES,10,1964,QUEENSTOWN,111 C'WEALTH CRES,140111,1.30635203323967,103.79846623315,0.4,COMMONWEALTH MRT STATION
111,CLEMENTI ST 13,13,1983,CLEMENTI,111 CLEMENTI ST 13,120111,1.32321605375506,103.771126100117,1.1,CLEMENTI MRT STATION
111,EDGEFIELD PLAINS,17,2001,PUNGGOL,111 EDGEFIELD PLAINS,820111,1.39667788621413,103.906579135419,0.3,MERIDIAN LRT STATION
111,GANGSA RD,13,1986,BUKIT PANJANG,111 GANGSA RD,670111,1.37816747421231,103.768365653762,0.2,PETIR LRT STATION
111,HO CHING RD,10,1970,JURONG WEST,111 HO CHING RD,610111,1.33388939555115,103.723306118882,1.2,LAKESIDE MRT STATION
111,HOUGANG AVE 1,4,1982,HOUGANG,111 HOUGANG AVE 1,530111,1.35498576469516,103.888557459754,0.7,KOVAN MRT STATION
111,JLN BT MERAH,2,1969,BUKIT MERAH,111 JLN BT MERAH,160111,1.27977398450705,103.826323104175,0.7,TIONG BAHRU MRT STATION
111,JURONG EAST ST 13,25,1981,JURONG EAST,111 JURONG EAST ST 13,600111,1.33877574926997,103.735604254517,0.4,CHINESE GARDEN MRT STATION
111,LENGKONG TIGA,14,1988,BEDOK,111 LENGKONG TIGA,410111,1.32405877835385,103.911303762731,0.4,KEMBANGAN MRT STATION
111,LOR 1 TOA PAYOH,10,1969,TAMPINES,111 LOR 1 TOA PAYOH,310111,1.34121955722461,103.84549278032,0.2,BRADDELL MRT STATION
111,LOR 3 GEYLANG,4,1988,KALLANG/WHAMPOA,111 LOR 3 GEYLANG,381111,1.31234800506209,103.873747840397,0.2,KALLANG MRT STATION
111,MCNAIR RD,15,1986,KALLANG/WHAMPOA,111 MCNAIR RD,320111,1.32130398839445,103.858272728064,0.5,BOON KENG MRT STATION
111,PASIR RIS ST 11,4,1990,PASIR RIS,111 PASIR RIS ST 11,510111,1.36805791982647,103.956378453152,1.0,PASIR RIS MRT STATION
111,RIVERVALE WALK,17,1998,SENGKANG,111 RIVERVALE WALK,540111,1.38439716664511,103.900811577122,0.2,KANGKAR LRT STATION
111,SERANGOON NTH AVE 1,13,1984,SERANGOON,111 SERANGOON NTH AVE 1,550111,1.36904731272801,103.870584006425,1.9,KOVAN MRT STATION
111,SIMEI ST 1,4,1987,TOA PAYOH,111 SIMEI ST 1,520111,1.34241233534134,103.949503526295,0.5,SIMEI MRT STATION
111,TAMPINES ST 11,11,1983,TOA PAYOH,111 TAMPINES ST 11,521111,1.34691471378463,103.947416464642,0.9,SIMEI MRT STATION
111,TECK WHYE LANE,12,1987,CHOA CHU KANG,111 TECK WHYE LANE,680111,1.37787904560638,103.752103670331,0.2,TECK WHYE LRT STATION
111,WHAMPOA RD,14,1997,KALLANG/WHAMPOA,111 WHAMPOA RD,321111,1.32658975917056,103.856187917486,1.1,BOON KENG MRT STATION
111,WOODLANDS ST 13,10,1993,WOODLANDS,111 WOODLANDS ST 13,730111,1.43794381732231,103.782059433742,0.8,WOODLANDS MRT STATION
111,YISHUN RING RD,11,1981,YISHUN,111 YISHUN RING RD,760111,1.43321263970177,103.828617498413,0.8,YISHUN MRT STATION
111A,ALKAFF CRES,16,2021,TAMPINES,111A ALKAFF CRES,341111,1.33469497701906,103.873122770802,0.5,POTONG PASIR MRT STATION
111A,DEPOT RD,25,2004,BUKIT MERAH,111A DEPOT RD,101111,1.28112269302349,103.808687895607,1.2,TELOK BLANGAH MRT STATION
111A,PLANTATION CRES,14,2023,TENGAH,111A PLANTATION CRES,691111,1.35580115419711,103.733988555086,1.6,CHINESE GARDEN MRT STATION
111B,ALKAFF CRES,16,2021,TAMPINES,111B ALKAFF CRES,342111,1.3350053450689,103.873330554771,0.5,POTONG PASIR MRT STATION
111B,DEPOT RD,25,2004,BUKIT MERAH,111B DEPOT RD,102111,1.28116510147179,103.808471760006,1.2,TELOK BLANGAH MRT STATION
111B,PLANTATION CRES,14,2023,TENGAH,111B PLANTATION CRES,692111,1.35545640495643,103.734110102652,1.5,CHINESE GARDEN MRT STATION
111C,PLANTATION CRES,14,2023,TENGAH,111C PLANTATION CRES,693111,1.35537386202248,103.733448176041,1.5,CHINESE GARDEN MRT STATION
112,ALJUNIED CRES,12,1979,GEYLANG,112 ALJUNIED CRES,380112,1.32041804730607,103.885098713079,0.5,ALJUNIED MRT STATION
112,ANG MO KIO AVE 4,12,1977,ANG MO KIO,112 ANG MO KIO AVE 4,560112,1.37127865145519,103.835766565741,0.3,MAYFLOWER MRT STATION
112,BEDOK RESERVOIR RD,15,1985,BEDOK,112 BEDOK RESERVOIR RD,470112,1.32969408806205,103.910490219171,0.6,KAKI BUKIT MRT STATION
112,BEDOK NTH RD,13,1977,BEDOK,112 BEDOK NTH RD,460112,1.33104907831935,103.935538768198,0.7,BEDOK RESERVOIR MRT STATION
112,BISHAN ST 12,9,1985,BISHAN,112 BISHAN ST 12,570112,1.34681029782167,103.84904106054,0.5,BISHAN MRT STATION
112,BT BATOK WEST AVE 6,12,1984,BUKIT BATOK,112 BT BATOK WEST AVE 6,650112,1.34817353357762,103.745025213312,0.6,BUKIT BATOK MRT STATION
112,BT PURMEI RD,14,1984,BUKIT MERAH,112 BT PURMEI RD,090112,1.27446978425392,103.825878114028,1.2,HARBOURFRONT MRT STATION
112,C'WEALTH CRES,10,1964,QUEENSTOWN,112 C'WEALTH CRES,140112,1.30661660830307,103.798183841941,0.4,COMMONWEALTH MRT STATION
112,CLEMENTI ST 13,4,1984,CLEMENTI,112 CLEMENTI ST 13,120112,1.32330123788358,103.769853488209,1.0,CLEMENTI MRT STATION
112,EDGEFIELD PLAINS,17,2001,PUNGGOL,112 EDGEFIELD PLAINS,820112,1.39624516914488,103.907087268008,0.2,MERIDIAN LRT STATION
112,HO CHING RD,10,1970,JURONG WEST,112 HO CHING RD,610112,1.33388558101654,103.723688445754,1.2,LAKESIDE MRT STATION
112,HOUGANG AVE 1,11,1980,HOUGANG,112 HOUGANG AVE 1,530112,1.35442181063898,103.888557768191,0.8,KOVAN MRT STATION
112,JURONG EAST ST 13,12,1980,JURONG EAST,112 JURONG EAST ST 13,600112,1.33920981490513,103.735824423107,0.4,CHINESE GARDEN MRT STATION
112,LENGKONG TIGA,18,1988,BEDOK,112 LENGKONG TIGA,410112,1.32348906535172,103.911407840981,0.3,KEMBANGAN MRT STATION
112,LOR 1 TOA PAYOH,10,1967,TAMPINES,112 LOR 1 TOA PAYOH,310112,1.34155339914007,103.845489613448,0.2,BRADDELL MRT STATION
112,LOR 3 GEYLANG,8,1988,KALLANG/WHAMPOA,112 LOR 3 GEYLANG,381112,1.31210823499254,103.873783661336,0.2,KALLANG MRT STATION
112,MCNAIR RD,15,1986,KALLANG/WHAMPOA,112 MCNAIR RD,320112,1.32101349547791,103.858982397017,0.4,BOON KENG MRT STATION
112,PASIR RIS ST 11,11,1989,PASIR RIS,112 PASIR RIS ST 11,510112,1.36770577441558,103.955796373988,0.9,PASIR RIS MRT STATION
112,PENDING RD,4,1986,BUKIT PANJANG,112 PENDING RD,670112,1.37855560391305,103.768748798796,0.2,PETIR LRT STATION
112,RIVERVALE WALK,17,1998,SENGKANG,112 RIVERVALE WALK,540112,1.38345976601372,103.901383674633,0.1,KANGKAR LRT STATION
112,SERANGOON NTH AVE 1,4,1984,SERANGOON,112 SERANGOON NTH AVE 1,550112,1.36919996934693,103.871588808817,1.8,KOVAN MRT STATION
112,SIMEI ST 1,11,1987,TOA PAYOH,112 SIMEI ST 1,520112,1.3431095844731,103.949559595972,0.5,SIMEI MRT STATION
112,TAMPINES ST 11,11,1981,TOA PAYOH,112 TAMPINES ST 11,521112,1.34629813577257,103.947509805595,0.8,SIMEI MRT STATION
112,TECK WHYE LANE,9,1988,CHOA CHU KANG,112 TECK WHYE LANE,680112,1.37748545136822,103.751921303308,0.2,TECK WHYE LRT STATION
112,WHAMPOA RD,18,1993,KALLANG/WHAMPOA,112 WHAMPOA RD,321112,1.32600154062314,103.856732205989,1.0,BOON KENG MRT STATION
112,WOODLANDS ST 13,4,1984,WOODLANDS,112 WOODLANDS ST 13,730112,1.43833146519626,103.781667292819,0.9,WOODLANDS MRT STATION
112,YISHUN RING RD,16,1985,YISHUN,112 YISHUN RING RD,760112,1.43416864539746,103.829054979214,0.8,YISHUN MRT STATION
112A,ALKAFF CRES,16,2021,TAMPINES,112A ALKAFF CRES,341112,1.33543941437138,103.873403171831,0.6,WOODLEIGH MRT STATION
112A,DEPOT RD,25,2003,BUKIT MERAH,112A DEPOT RD,101112,1.28147636173322,103.808148105183,1.2,TELOK BLANGAH MRT STATION
112A,PLANTATION CRES,14,2023,TENGAH,112A PLANTATION CRES,691112,1.35432940422664,103.735168981842,1.4,CHINESE GARDEN MRT STATION
112B,ALKAFF CRES,16,2021,TAMPINES,112B ALKAFF CRES,342112,1.33586231353671,103.873504003726,0.5,WOODLEIGH MRT STATION
112B,DEPOT RD,25,2003,BUKIT MERAH,112B DEPOT RD,102112,1.28156873918268,103.80773165728,1.2,LABRADOR PARK MRT STATION
112B,PLANTATION CRES,14,2023,TENGAH,112B PLANTATION CRES,692112,1.35486163684029,103.734628425622,1.5,CHINESE GARDEN MRT STATION
113,ALJUNIED AVE 2,2,1978,GEYLANG,113 ALJUNIED AVE 2,380113,1.32052595935167,103.886159306934,0.6,ALJUNIED MRT STATION
113,ANG MO KIO AVE 4,12,1977,ANG MO KIO,113 ANG MO KIO AVE 4,560113,1.37178518125527,103.835965663569,0.3,MAYFLOWER MRT STATION
113,BEDOK NTH ST 2,13,1977,BEDOK,113 BEDOK NTH ST 2,460113,1.33036165024598,103.935081017472,0.7,BEDOK RESERVOIR MRT STATION
113,BEDOK RESERVOIR RD,4,1985,BEDOK,113 BEDOK RESERVOIR RD,470113,1.3299667100249,103.910782526741,0.6,KAKI BUKIT MRT STATION
113,BISHAN ST 12,12,1985,BISHAN,113 BISHAN ST 12,570113,1.34723185095729,103.848808988875,0.5,BISHAN MRT STATION
113,BT BATOK WEST AVE 6,12,1983,BUKIT BATOK,113 BT BATOK WEST AVE 6,650113,1.34883637963314,103.745173404083,0.5,BUKIT BATOK MRT STATION
113,BT PURMEI RD,14,1984,BUKIT MERAH,113 BT PURMEI RD,090113,1.27477013494182,103.826932277494,1.2,TIONG BAHRU MRT STATION
113,C'WEALTH CRES,10,1964,QUEENSTOWN,113 C'WEALTH CRES,140113,1.30674648149908,103.797955728951,0.4,COMMONWEALTH MRT STATION
113,CLEMENTI ST 13,13,1984,CLEMENTI,113 CLEMENTI ST 13,120113,1.32368401078529,103.77013234931,1.1,CLEMENTI MRT STATION
113,DEPOT RD,25,1976,BUKIT MERAH,113 DEPOT RD,100113,1.28141986196531,103.807286875557,1.2,LABRADOR PARK MRT STATION
113,HOUGANG AVE 1,13,1981,HOUGANG,113 HOUGANG AVE 1,530113,1.35356905255693,103.888705665044,0.9,KOVAN MRT STATION
113,JLN BT MERAH,12,1968,BUKIT MERAH,113 JLN BT MERAH,160113,1.28027764882907,103.82572355886,0.6,TIONG BAHRU MRT STATION
113,JURONG EAST ST 13,12,1981,JURONG EAST,113 JURONG EAST ST 13,600113,1.33879791361243,103.734807724832,0.3,CHINESE GARDEN MRT STATION
113,LENGKONG TIGA,4,1988,BEDOK,113 LENGKONG TIGA,410113,1.32345184052589,103.911904886504,0.3,KEMBANGAN MRT STATION
113,LOR 3 GEYLANG,14,1989,KALLANG/WHAMPOA,113 LOR 3 GEYLANG,381113,1.31179784731942,103.873852489639,0.3,KALLANG MRT STATION
113,LOR 1 TOA PAYOH,10,1967,TAMPINES,113 LOR 1 TOA PAYOH,310113,1.34128334016832,103.844605484696,0.3,BRADDELL MRT STATION
113,PASIR RIS ST 11,13,1989,PASIR RIS,113 PASIR RIS ST 11,510113,1.36805525886307,103.955767151318,0.9,PASIR RIS MRT STATION
113,PENDING RD,12,1986,BUKIT PANJANG,113 PENDING RD,670113,1.37838181779224,103.769359493878,0.3,PETIR LRT STATION
113,POTONG PASIR AVE 1,13,1984,TAMPINES,113 POTONG PASIR AVE 1,350113,1.33605593871885,103.863599507828,0.7,POTONG PASIR MRT STATION
113,RIVERVALE WALK,17,1998,SENGKANG,113 RIVERVALE WALK,540113,1.38382743689141,103.901683665212,0.1,KANGKAR LRT STATION
113,SERANGOON NTH AVE 1,4,1984,SERANGOON,113 SERANGOON NTH AVE 1,550113,1.36877682866954,103.870474929987,1.8,KOVAN MRT STATION
113,SIMEI ST 1,11,1987,TOA PAYOH,113 SIMEI ST 1,520113,1.34285425567354,103.94988040818,0.4,SIMEI MRT STATION
113,TAMPINES ST 11,9,1981,TOA PAYOH,113 TAMPINES ST 11,521113,1.34647851722058,103.946176771298,0.8,TAMPINES WEST MRT STATION
113,TAO CHING RD,10,1971,JURONG WEST,113 TAO CHING RD,610113,1.33318449829266,103.724354324887,1.3,LAKESIDE MRT STATION
113,TECK WHYE LANE,10,1988,CHOA CHU KANG,113 TECK WHYE LANE,680113,1.37793931794235,103.75091538895,0.2,KEAT HONG LRT STATION
113,WHAMPOA RD,18,1993,KALLANG/WHAMPOA,113 WHAMPOA RD,320113,1.32583330364152,103.857179319976,1.0,BOON KENG MRT STATION
113,WOODLANDS ST 13,13,1984,WOODLANDS,113 WOODLANDS ST 13,730113,1.43801404529215,103.78122891909,0.9,WOODLANDS MRT STATION
113,YISHUN RING RD,9,1985,YISHUN,113 YISHUN RING RD,760113,1.43513580201461,103.828873241093,0.9,YISHUN MRT STATION
113A,ALKAFF CRES,16,2021,TAMPINES,113A ALKAFF CRES,341113,1.33595942768701,103.873151042839,0.5,WOODLEIGH MRT STATION
113A,MCNAIR RD,35,2016,KALLANG/WHAMPOA,113A MCNAIR RD,322113,1.32142575611025,103.860194689384,0.4,BOON KENG MRT STATION
113A,PLANTATION CRES,14,2023,TENGAH,113A PLANTATION CRES,691113,1.35367162010991,103.735194129994,1.4,CHINESE GARDEN MRT STATION
113B,ALKAFF CRES,16,2021,TAMPINES,113B ALKAFF CRES,342113,1.33599511612491,103.872560975326,0.5,WOODLEIGH MRT STATION
113B,MCNAIR RD,35,2016,KALLANG/WHAMPOA,113B MCNAIR RD,323113,1.32118140104797,103.860568176564,0.4,BOON KENG MRT STATION
113B,PLANTATION CRES,14,2023,TENGAH,113B PLANTATION CRES,692113,1.35404207309469,103.734829170975,1.4,CHINESE GARDEN MRT STATION
113C,MCNAIR RD,28,2016,KALLANG/WHAMPOA,113C MCNAIR RD,324113,1.32088235344697,103.860331710143,0.3,BOON KENG MRT STATION
113D,MCNAIR RD,28,2016,KALLANG/WHAMPOA,113D MCNAIR RD,325113,1.32014859879822,103.859763746554,0.3,BOON KENG MRT STATION
114,ANG MO KIO AVE 4,12,1977,ANG MO KIO,114 ANG MO KIO AVE 4,560114,1.37257962452704,103.836220813247,0.2,MAYFLOWER MRT STATION
114,BEDOK RESERVOIR RD,13,1985,BEDOK,114 BEDOK RESERVOIR RD,470114,1.33056065989658,103.909838947885,0.5,KAKI BUKIT MRT STATION
114,BEDOK NTH ST 2,13,1977,BEDOK,114 BEDOK NTH ST 2,460114,1.33050521254379,103.93581688525,0.7,BEDOK RESERVOIR MRT STATION
114,BISHAN ST 12,12,1985,BISHAN,114 BISHAN ST 12,570114,1.34754941457825,103.848880515837,0.4,BISHAN MRT STATION
114,BT PURMEI RD,16,1984,BUKIT MERAH,114 BT PURMEI RD,090114,1.27507181850164,103.825887190072,1.2,TIONG BAHRU MRT STATION
114,BT BATOK WEST AVE 6,11,1984,BUKIT BATOK,114 BT BATOK WEST AVE 6,650114,1.34883662857191,103.746021679075,0.4,BUKIT BATOK MRT STATION
114,CLEMENTI ST 13,13,1984,CLEMENTI,114 CLEMENTI ST 13,120114,1.32391547713763,103.770629507887,1.1,CLEMENTI MRT STATION
114,DEPOT RD,25,1976,BUKIT MERAH,114 DEPOT RD,100114,1.28175927117793,103.806862236642,1.2,LABRADOR PARK MRT STATION
114,EDGEFIELD PLAINS,17,2001,PUNGGOL,114 EDGEFIELD PLAINS,820114,1.39579971783121,103.907555598729,0.2,MERIDIAN LRT STATION
114,HO CHING RD,10,1971,JURONG WEST,114 HO CHING RD,610114,1.33378944321337,103.72411125115,1.2,LAKESIDE MRT STATION
114,HOUGANG AVE 1,12,1981,HOUGANG,114 HOUGANG AVE 1,530114,1.35290845840879,103.888972338303,0.9,KOVAN MRT STATION
114,JURONG EAST ST 13,4,1981,JURONG EAST,114 JURONG EAST ST 13,600114,1.33923166301632,103.734632045186,0.3,CHINESE GARDEN MRT STATION
114,LENGKONG TIGA,18,1988,BEDOK,114 LENGKONG TIGA,410114,1.32313486125334,103.91204571131,0.2,KEMBANGAN MRT STATION
114,LOR 1 TOA PAYOH,10,1967,TAMPINES,114 LOR 1 TOA PAYOH,310114,1.34094034792461,103.844305919348,0.3,BRADDELL MRT STATION
114,LOR 3 GEYLANG,10,1988,KALLANG/WHAMPOA,114 LOR 3 GEYLANG,381114,1.31149898527826,103.874031815966,0.3,KALLANG MRT STATION
114,MARSILING RISE,4,1984,WOODLANDS,114 MARSILING RISE,730114,1.43872152075601,103.781287430018,0.9,WOODLANDS MRT STATION
114,PASIR RIS ST 11,13,1988,PASIR RIS,114 PASIR RIS ST 11,510114,1.36845058392966,103.954961424604,0.8,PASIR RIS MRT STATION
114,PENDING RD,4,1987,BUKIT PANJANG,114 PENDING RD,670114,1.37785558547628,103.769840358536,0.2,PENDING LRT STATION
114,POTONG PASIR AVE 1,13,1984,TAMPINES,114 POTONG PASIR AVE 1,350114,1.33677492855247,103.863306370924,0.8,POTONG PASIR MRT STATION
114,RIVERVALE WALK,17,1998,SENGKANG,114 RIVERVALE WALK,540114,1.38409456683002,103.901075631499,0.1,KANGKAR LRT STATION
114,SERANGOON NTH AVE 1,13,1984,SERANGOON,114 SERANGOON NTH AVE 1,550114,1.3688522558684,103.871488888571,1.8,KOVAN MRT STATION
114,SIMEI ST 1,11,1987,TOA PAYOH,114 SIMEI ST 1,520114,1.34384910516645,103.950437525657,0.4,SIMEI MRT STATION
114,TAMPINES ST 11,11,1981,TOA PAYOH,114 TAMPINES ST 11,521114,1.34597162499396,103.946759997114,0.9,SIMEI MRT STATION
114,TECK WHYE LANE,12,1987,CHOA CHU KANG,114 TECK WHYE LANE,680114,1.37850799248774,103.750707442454,0.2,KEAT HONG LRT STATION
114,WHAMPOA RD,14,1994,KALLANG/WHAMPOA,114 WHAMPOA RD,320114,1.3254120484659,103.857481385973,0.9,BOON KENG MRT STATION
114,YISHUN RING RD,9,1982,YISHUN,114 YISHUN RING RD,760114,1.43413792566359,103.827020312888,1.0,YISHUN MRT STATION
114A,ALKAFF CRES,16,2021,TAMPINES,114A ALKAFF CRES,341114,1.33562146047276,103.872708673996,0.5,WOODLEIGH MRT STATION
114A,BT BATOK WEST AVE 6,28,2022,BUKIT BATOK,114A BT BATOK WEST AVE 6,651114,1.34990668648416,103.745812546141,0.5,BUKIT BATOK MRT STATION
114A,PLANTATION CRES,14,2023,TENGAH,114A PLANTATION CRES,691114,1.35447254345357,103.734156856636,1.4,CHINESE GARDEN MRT STATION
114B,ALKAFF CRES,16,2021,TAMPINES,114B ALKAFF CRES,342114,1.33520716488237,103.872596050083,0.5,POTONG PASIR MRT STATION
114B,BT BATOK WEST AVE 6,28,2022,BUKIT BATOK,114B BT BATOK WEST AVE 6,652114,1.34971718546197,103.745403188757,0.5,BUKIT BATOK MRT STATION
114B,PLANTATION CRES,14,2023,TENGAH,114B PLANTATION CRES,692114,1.35480531839356,103.733839199767,1.5,CHINESE GARDEN MRT STATION
115,ALJUNIED AVE 2,2,1978,GEYLANG,115 ALJUNIED AVE 2,380115,1.32131987999086,103.887277682842,0.7,MACPHERSON MRT STATION
115,ANG MO KIO AVE 4,11,1977,ANG MO KIO,115 ANG MO KIO AVE 4,560115,1.37295570473997,103.836400118348,0.1,MAYFLOWER MRT STATION
115,BEDOK NTH RD,13,1977,BEDOK,115 BEDOK NTH RD,460115,1.33143368026417,103.936865404278,0.7,BEDOK RESERVOIR MRT STATION
115,BEDOK RESERVOIR RD,13,1985,BEDOK,115 BEDOK RESERVOIR RD,470115,1.33067394377665,103.908738351193,0.5,KAKI BUKIT MRT STATION
115,BISHAN ST 12,9,1985,BISHAN,115 BISHAN ST 12,570115,1.34791838898824,103.84875012549,0.4,BISHAN MRT STATION
115,BT PURMEI RD,16,1984,BUKIT MERAH,115 BT PURMEI RD,090115,1.27535201369639,103.826950180582,1.2,TIONG BAHRU MRT STATION
115,BT MERAH CTRL,25,1977,BUKIT MERAH,115 BT MERAH CTRL,150115,1.28412809632853,103.814543761786,0.6,REDHILL MRT STATION
115,BT BATOK WEST AVE 6,25,1984,BUKIT BATOK,115 BT BATOK WEST AVE 6,650115,1.34918319745272,103.746566795213,0.4,BUKIT BATOK MRT STATION
115,CLEMENTI ST 13,15,1984,CLEMENTI,115 CLEMENTI ST 13,120115,1.32354513274251,103.771328752409,1.1,CLEMENTI MRT STATION
115,EDGEFIELD PLAINS,17,2001,PUNGGOL,115 EDGEFIELD PLAINS,820115,1.39512854654351,103.907258380479,0.3,MERIDIAN LRT STATION
115,HOUGANG AVE 1,12,1981,HOUGANG,115 HOUGANG AVE 1,530115,1.35276525799641,103.887876084862,0.9,KOVAN MRT STATION
115,HO CHING RD,19,1997,JURONG WEST,115 HO CHING RD,610115,1.33367081421694,103.724659608331,1.2,LAKESIDE MRT STATION
115,JLN BT MERAH,12,1968,BUKIT MERAH,115 JLN BT MERAH,160115,1.28108139632864,103.826489308768,0.5,TIONG BAHRU MRT STATION
115,JURONG EAST ST 13,12,1981,JURONG EAST,115 JURONG EAST ST 13,600115,1.33979148822906,103.735502765561,0.3,CHINESE GARDEN MRT STATION
115,LENGKONG TIGA,7,1988,BEDOK,115 LENGKONG TIGA,410115,1.32297309915876,103.911228144346,0.3,KEMBANGAN MRT STATION
115,LOR 1 TOA PAYOH,10,1967,TAMPINES,115 LOR 1 TOA PAYOH,310115,1.34063140668544,103.844305221987,0.3,BRADDELL MRT STATION
115,MARSILING RISE,13,1985,WOODLANDS,115 MARSILING RISE,730115,1.43828115433517,103.780966950454,0.9,WOODLANDS MRT STATION
115,PASIR RIS ST 11,11,1988,PASIR RIS,115 PASIR RIS ST 11,510115,1.36892657029538,103.954870571077,0.8,PASIR RIS MRT STATION
115,PENDING RD,12,1986,BUKIT PANJANG,115 PENDING RD,670115,1.37801437708806,103.76920520215,0.3,PETIR LRT STATION
115,POTONG PASIR AVE 1,13,1984,TAMPINES,115 POTONG PASIR AVE 1,350115,1.33726999806036,103.862806558366,0.8,POTONG PASIR MRT STATION
115,RIVERVALE WALK,17,1998,SENGKANG,115 RIVERVALE WALK,540115,1.38443729931578,103.901309870914,0.1,KANGKAR LRT STATION
115,SERANGOON NTH AVE 1,4,1984,SERANGOON,115 SERANGOON NTH AVE 1,550115,1.3681312354317,103.870576991283,1.8,KOVAN MRT STATION
115,TECK WHYE LANE,12,1987,CHOA CHU KANG,115 TECK WHYE LANE,680115,1.37893677955462,103.751182368998,0.2,KEAT HONG LRT STATION
115,WHAMPOA RD,14,1993,KALLANG/WHAMPOA,115 WHAMPOA RD,320115,1.32626357738979,103.857337481485,1.0,BOON KENG MRT STATION
115,YISHUN RING RD,9,1982,YISHUN,115 YISHUN RING RD,760115,1.43456484461254,103.827973678337,0.9,YISHUN MRT STATION
115A,ALKAFF CRES,17,2019,TAMPINES,115A ALKAFF CRES,341115,1.33645283610396,103.87276093968,0.4,WOODLEIGH MRT STATION
115A,CANBERRA WALK,11,2017,SEMBAWANG,115A CANBERRA WALK,751115,1.44662215217976,103.829140768756,0.3,CANBERRA MRT STATION
115A,JLN AYER,28,2021,KALLANG/WHAMPOA,115A JLN AYER,382115,1.31147846434971,103.872687694828,0.1,KALLANG MRT STATION
115A,YISHUN RING RD,16,1999,YISHUN,115A YISHUN RING RD,761115,1.43331769000776,103.827515443899,0.9,YISHUN MRT STATION
115B,CANBERRA WALK,11,2017,SEMBAWANG,115B CANBERRA WALK,752115,1.44631122878781,103.829416902418,0.3,CANBERRA MRT STATION
115B,JLN AYER,26,2021,KALLANG/WHAMPOA,115B JLN AYER,383115,1.31173777682602,103.873094505241,0.2,KALLANG MRT STATION
115B,YISHUN RING RD,16,1999,YISHUN,115B YISHUN RING RD,762115,1.43339605588677,103.82711777039,1.0,YISHUN MRT STATION
115C,ALKAFF CRES,17,2019,TAMPINES,115C ALKAFF CRES,343115,1.33722847497236,103.872886634076,0.4,WOODLEIGH MRT STATION
115C,CANBERRA WALK,11,2017,SEMBAWANG,115C CANBERRA WALK,753115,1.44607590012952,103.829826244984,0.3,CANBERRA MRT STATION
115C,YISHUN RING RD,16,1999,YISHUN,115C YISHUN RING RD,763115,1.43378416383121,103.827489711438,0.9,YISHUN MRT STATION
115D,CANBERRA WALK,11,2017,SEMBAWANG,115D CANBERRA WALK,754115,1.44554357187768,103.828991632152,0.2,CANBERRA MRT STATION
116,ALJUNIED AVE 2,2,1978,GEYLANG,116 ALJUNIED AVE 2,380116,1.32124570546254,103.886700619832,0.7,MACPHERSON MRT STATION
116,ANG MO KIO AVE 4,11,1977,ANG MO KIO,116 ANG MO KIO AVE 4,560116,1.37334635014911,103.8364593481,0.1,MAYFLOWER MRT STATION
116,BEDOK RESERVOIR RD,13,1985,BEDOK,116 BEDOK RESERVOIR RD,470116,1.33103784588692,103.908641634756,0.4,KAKI BUKIT MRT STATION
116,BEDOK NTH RD,13,1977,BEDOK,116 BEDOK NTH RD,460116,1.33100823526591,103.938066838998,0.8,BEDOK RESERVOIR MRT STATION
116,BISHAN ST 12,9,1985,BISHAN,116 BISHAN ST 12,570116,1.3478007201456,103.849316086687,0.4,BISHAN MRT STATION
116,BT MERAH VIEW,5,1973,BUKIT MERAH,116 BT MERAH VIEW,151116,1.28513427067055,103.821532226321,0.6,TIONG BAHRU MRT STATION
116,BT BATOK WEST AVE 6,12,1984,BUKIT BATOK,116 BT BATOK WEST AVE 6,650116,1.34962866452512,103.746381073293,0.4,BUKIT BATOK MRT STATION
116,BT MERAH CTRL,25,1977,BUKIT MERAH,116 BT MERAH CTRL,150116,1.28391030770326,103.814983303997,0.6,REDHILL MRT STATION
116,CLEMENTI ST 13,15,1983,CLEMENTI,116 CLEMENTI ST 13,120116,1.32411253933745,103.771925036203,1.2,CLEMENTI MRT STATION
116,EDGEFIELD PLAINS,17,2001,PUNGGOL,116 EDGEFIELD PLAINS,820116,1.39541568018681,103.906912210986,0.3,MERIDIAN LRT STATION
116,HO CHING RD,10,1971,JURONG WEST,116 HO CHING RD,610116,1.3348098788008,103.723257417625,1.1,LAKESIDE MRT STATION
116,HOUGANG AVE 1,13,1980,HOUGANG,116 HOUGANG AVE 1,530116,1.35313871987326,103.887727360873,0.9,KOVAN MRT STATION
116,JLN BT MERAH,12,1968,BUKIT MERAH,116 JLN BT MERAH,160116,1.2814103907615,103.826659816441,0.5,TIONG BAHRU MRT STATION
116,JURONG EAST ST 13,25,1981,JURONG EAST,116 JURONG EAST ST 13,600116,1.33970763311095,103.734697751981,0.3,CHINESE GARDEN MRT STATION
116,LENGKONG TIGA,18,1988,BEDOK,116 LENGKONG TIGA,410116,1.32278533070059,103.911863013412,0.2,KEMBANGAN MRT STATION
116,LOR 2 TOA PAYOH,20,1969,TAMPINES,116 LOR 2 TOA PAYOH,310116,1.34047287241805,103.846142516335,0.1,BRADDELL MRT STATION
116,MARSILING RISE,4,1985,WOODLANDS,116 MARSILING RISE,730116,1.43800951390035,103.780447195946,0.9,MARSILING MRT STATION
116,PASIR RIS ST 11,4,1988,PASIR RIS,116 PASIR RIS ST 11,510116,1.36840453035745,103.954483834817,0.8,PASIR RIS MRT STATION
116,PENDING RD,12,1986,BUKIT PANJANG,116 PENDING RD,670116,1.37717208956785,103.768616764303,0.2,PETIR LRT STATION
116,POTONG PASIR AVE 1,4,1984,TAMPINES,116 POTONG PASIR AVE 1,350116,1.33682600128685,103.862613324599,0.8,POTONG PASIR MRT STATION
116,SERANGOON NTH AVE 1,13,1984,SERANGOON,116 SERANGOON NTH AVE 1,550116,1.3684875699447,103.871588685744,1.7,KOVAN MRT STATION
116,SIMEI ST 1,11,1987,TOA PAYOH,116 SIMEI ST 1,520116,1.34358452919709,103.951127773868,0.3,SIMEI MRT STATION
116,TECK WHYE LANE,10,1988,CHOA CHU KANG,116 TECK WHYE LANE,680116,1.37898192310747,103.751779491677,0.3,KEAT HONG LRT STATION
116,YISHUN RING RD,9,1982,YISHUN,116 YISHUN RING RD,760116,1.43502750249052,103.82813490143,0.9,CANBERRA MRT STATION
116A,CANBERRA CRES,11,2018,SEMBAWANG,116A CANBERRA CRES,751116,1.44537906713915,103.830020383661,0.2,CANBERRA MRT STATION
116A,JLN TENTERAM,31,2016,KALLANG/WHAMPOA,116A JLN TENTERAM,321116,1.3270531250321,103.860558381575,1.0,BOON KENG MRT STATION
116A,PLANTATION CRES,14,2024,TENGAH,116A PLANTATION CRES,691116,1.3564037939297,103.734999602014,1.7,CHINESE GARDEN MRT STATION
116A,RIVERVALE DR,17,1998,SENGKANG,116A RIVERVALE DR,541116,1.38246038039285,103.902238681998,0.2,KANGKAR LRT STATION
116B,JLN TENTERAM,31,2016,KALLANG/WHAMPOA,116B JLN TENTERAM,322116,1.32754908001444,103.860807411661,1.1,BOON KENG MRT STATION
116B,PLANTATION CRES,14,2024,TENGAH,116B PLANTATION CRES,692116,1.35643716337499,103.735734236456,1.7,CHINESE GARDEN MRT STATION
116B,RIVERVALE DR,17,1998,SENGKANG,116B RIVERVALE DR,542116,1.3820599154844,103.90235541039,0.2,KANGKAR LRT STATION
116C,RIVERVALE DR,17,1998,SENGKANG,116C RIVERVALE DR,543116,1.38215509990243,103.902852237154,0.2,KANGKAR LRT STATION
117,ANG MO KIO AVE 4,12,1977,ANG MO KIO,117 ANG MO KIO AVE 4,560117,1.3737170825368,103.835610469339,0.2,MAYFLOWER MRT STATION
117,BEDOK NTH RD,13,1977,BEDOK,117 BEDOK NTH RD,460117,1.33065454769523,103.938496275607,0.9,BEDOK RESERVOIR MRT STATION
117,BEDOK RESERVOIR RD,10,1985,BEDOK,117 BEDOK RESERVOIR RD,470117,1.3314132488271,103.908688936549,0.4,KAKI BUKIT MRT STATION
117,BISHAN ST 12,25,1986,BISHAN,117 BISHAN ST 12,570117,1.34701742106562,103.849986659939,0.4,BISHAN MRT STATION
117,BT BATOK WEST AVE 6,25,1984,BUKIT BATOK,117 BT BATOK WEST AVE 6,650117,1.34996555858187,103.74714214948,0.3,BUKIT BATOK MRT STATION
117,BT MERAH VIEW,16,1973,BUKIT MERAH,117 BT MERAH VIEW,151117,1.2843201824206,103.821840007927,0.6,TIONG BAHRU MRT STATION
117,BT MERAH CTRL,25,1977,BUKIT MERAH,117 BT MERAH CTRL,150117,1.28365235024006,103.815411052175,0.7,REDHILL MRT STATION
117,CLEMENTI ST 13,15,1984,CLEMENTI,117 CLEMENTI ST 13,120117,1.32446058239498,103.771184563895,1.2,CLEMENTI MRT STATION
117,EDGEFIELD PLAINS,17,2001,PUNGGOL,117 EDGEFIELD PLAINS,820117,1.3957873517208,103.9066178087,0.3,MERIDIAN LRT STATION
117,HOUGANG AVE 1,4,1981,HOUGANG,117 HOUGANG AVE 1,530117,1.35361343990292,103.888145554328,0.8,KOVAN MRT STATION
117,HO CHING RD,10,1971,JURONG WEST,117 HO CHING RD,610117,1.33509694926926,103.723073150935,1.0,LAKESIDE MRT STATION
117,JLN BT MERAH,12,1968,BUKIT MERAH,117 JLN BT MERAH,160117,1.28170700587327,103.82683952932,0.5,TIONG BAHRU MRT STATION
117,LOR 1 TOA PAYOH,10,1967,TAMPINES,117 LOR 1 TOA PAYOH,310117,1.34002063627855,103.845413792089,0.2,BRADDELL MRT STATION
117,MARSILING RISE,4,1984,WOODLANDS,117 MARSILING RISE,730117,1.43815470582721,103.780110890038,0.9,MARSILING MRT STATION
117,PASIR RIS ST 11,11,1988,PASIR RIS,117 PASIR RIS ST 11,510117,1.36789487704032,103.954721651011,0.8,PASIR RIS MRT STATION
117,PENDING RD,4,1986,BUKIT PANJANG,117 PENDING RD,670117,1.37730128071547,103.767979335905,0.1,PETIR LRT STATION
117,POTONG PASIR AVE 1,13,1984,TAMPINES,117 POTONG PASIR AVE 1,350117,1.33600825252357,103.863020849819,0.7,POTONG PASIR MRT STATION
117,SERANGOON NTH AVE 1,13,1984,SERANGOON,117 SERANGOON NTH AVE 1,550117,1.3679757504585,103.870862723896,1.8,KOVAN MRT STATION
117,SIMEI ST 1,11,1987,TOA PAYOH,117 SIMEI ST 1,520117,1.34458555119791,103.951315573207,0.4,SIMEI MRT STATION
117,TAMPINES ST 11,11,2014,TOA PAYOH,117 TAMPINES ST 11,521117,1.34523592464479,103.946197624506,0.8,TAMPINES WEST MRT STATION
117,TECK WHYE LANE,10,1988,CHOA CHU KANG,117 TECK WHYE LANE,680117,1.3795891559942,103.751272002099,0.3,KEAT HONG LRT STATION
117,YISHUN RING RD,9,1982,YISHUN,117 YISHUN RING RD,760117,1.43555874650871,103.827699051305,0.9,CANBERRA MRT STATION
117A,CANBERRA CRES,11,2019,SEMBAWANG,117A CANBERRA CRES,751117,1.44497965573574,103.830518633862,0.2,CANBERRA MRT STATION
117A,JLN TENTERAM,30,2016,KALLANG/WHAMPOA,117A JLN TENTERAM,321117,1.3282335842715,103.861138402914,1.0,POTONG PASIR MRT STATION
117A,PLANTATION CRES,14,2024,TENGAH,117A PLANTATION CRES,691117,1.35589934899161,103.735474202676,1.6,CHINESE GARDEN MRT STATION
117A,RIVERVALE DR,17,1998,SENGKANG,117A RIVERVALE DR,541117,1.38317691810934,103.902596601727,0.1,KANGKAR LRT STATION
117B,CANBERRA CRES,11,2019,SEMBAWANG,117B CANBERRA CRES,752117,1.4447956978802,103.830159588142,0.2,CANBERRA MRT STATION
117B,JLN TENTERAM,30,2016,KALLANG/WHAMPOA,117B JLN TENTERAM,322117,1.32816494843873,103.860801944702,1.0,POTONG PASIR MRT STATION
117B,RIVERVALE DR,17,1998,SENGKANG,117B RIVERVALE DR,542117,1.38358691172228,103.902524354383,0.1,KANGKAR LRT STATION
117C,RIVERVALE DR,17,1998,SENGKANG,117C RIVERVALE DR,543117,1.38335262478272,103.903221409585,0.1,KANGKAR LRT STATION
118,ANG MO KIO AVE 4,12,1977,ANG MO KIO,118 ANG MO KIO AVE 4,560118,1.37329593649654,103.835475719134,0.2,MAYFLOWER MRT STATION
118,BEDOK RESERVOIR RD,4,1985,BEDOK,118 BEDOK RESERVOIR RD,470118,1.33110238852805,103.90914661438,0.4,KAKI BUKIT MRT STATION
118,BEDOK NTH ST 2,19,1977,BEDOK,118 BEDOK NTH ST 2,460118,1.33043385999052,103.937481669683,0.8,BEDOK RESERVOIR MRT STATION
118,BISHAN ST 12,4,1986,BISHAN,118 BISHAN ST 12,570118,1.34660370387638,103.849915297835,0.5,BISHAN MRT STATION
118,BT BATOK WEST AVE 6,8,1983,BUKIT BATOK,118 BT BATOK WEST AVE 6,650118,1.35000951618749,103.746499580095,0.4,BUKIT BATOK MRT STATION
118,BT MERAH VIEW,15,2001,BUKIT MERAH,118 BT MERAH VIEW,150118,1.28405665902905,103.821065058206,0.7,TIONG BAHRU MRT STATION
118,CLEMENTI ST 13,15,1984,CLEMENTI,118 CLEMENTI ST 13,120118,1.32491798651946,103.771891149087,1.3,CLEMENTI MRT STATION
118,CORPORATION DR,10,1971,JURONG WEST,118 CORPORATION DR,610118,1.33538115974338,103.722906605661,1.0,LAKESIDE MRT STATION
118,EDGEFIELD PLAINS,17,2001,PUNGGOL,118 EDGEFIELD PLAINS,820118,1.39620706577543,103.906147061259,0.3,MERIDIAN LRT STATION
118,HOUGANG AVE 1,4,1981,HOUGANG,118 HOUGANG AVE 1,530118,1.35345957179709,103.887488043611,0.8,KOVAN MRT STATION
118,LOR 1 TOA PAYOH,10,1967,TAMPINES,118 LOR 1 TOA PAYOH,310118,1.33956301707324,103.844893597061,0.3,BRADDELL MRT STATION
118,MARSILING RISE,12,1984,WOODLANDS,118 MARSILING RISE,730118,1.43848429382173,103.780381436251,0.9,MARSILING MRT STATION
118,PASIR RIS ST 11,13,1988,PASIR RIS,118 PASIR RIS ST 11,510118,1.36714920047941,103.954805267521,0.9,PASIR RIS MRT STATION
118,PENDING RD,12,1986,BUKIT PANJANG,118 PENDING RD,670118,1.37680420349222,103.768463736662,0.2,PETIR LRT STATION
118,POTONG PASIR AVE 1,4,1984,TAMPINES,118 POTONG PASIR AVE 1,350118,1.33548147418923,103.862653751675,0.8,POTONG PASIR MRT STATION
118,SERANGOON NTH AVE 1,13,1984,SERANGOON,118 SERANGOON NTH AVE 1,550118,1.36759548630876,103.870917753447,1.7,KOVAN MRT STATION
118,TECK WHYE LANE,11,1988,CHOA CHU KANG,118 TECK WHYE LANE,680118,1.37987102781951,103.750647321595,0.2,KEAT HONG LRT STATION
118,YISHUN RING RD,9,1982,YISHUN,118 YISHUN RING RD,760118,1.43598707842969,103.828641482509,0.8,CANBERRA MRT STATION
118A,ALKAFF CRES,17,2019,TAMPINES,118A ALKAFF CRES,341118,1.33649028446747,103.873777299654,0.5,WOODLEIGH MRT STATION
118A,CANBERRA CRES,11,2019,SEMBAWANG,118A CANBERRA CRES,751118,1.44463698935014,103.829634928256,0.1,CANBERRA MRT STATION
118A,JLN MEMBINA,30,2001,BUKIT MERAH,118A JLN MEMBINA,161118,1.28142028197972,103.825645216312,0.5,TIONG BAHRU MRT STATION
118A,PLANTATION CRES,11,2024,TENGAH,118A PLANTATION CRES,691118,1.35557880676572,103.735726877952,1.6,CHINESE GARDEN MRT STATION
118B,CANBERRA CRES,11,2019,SEMBAWANG,118B CANBERRA CRES,752118,1.4450285258496,103.829460415871,0.2,CANBERRA MRT STATION
118B,JLN MEMBINA,30,2001,BUKIT MERAH,118B JLN MEMBINA,162118,1.28178928032033,103.825989640948,0.5,TIONG BAHRU MRT STATION
118B,PLANTATION CRES,9,2024,TENGAH,118B PLANTATION CRES,692118,1.35621747390042,103.736187047873,1.7,CHINESE GARDEN MRT STATION
118C,JLN MEMBINA,30,2001,BUKIT MERAH,118C JLN MEMBINA,163118,1.2821693708226,103.826333715085,0.4,TIONG BAHRU MRT STATION
118D,JLN MEMBINA,30,2001,BUKIT MERAH,118D JLN MEMBINA,164118,1.2826810505173,103.826583442179,0.3,TIONG BAHRU MRT STATION
119,ALJUNIED AVE 2,2,1981,GEYLANG,119 ALJUNIED AVE 2,380119,1.31920342964443,103.886335477819,0.5,ALJUNIED MRT STATION
119,ANG MO KIO AVE 3,11,1977,ANG MO KIO,119 ANG MO KIO AVE 3,560119,1.36956344301912,103.844698910817,0.5,ANG MO KIO MRT STATION
119,BEDOK NTH RD,12,1977,BEDOK,119 BEDOK NTH RD,460119,1.33018552011132,103.938716613648,0.9,TANAH MERAH MRT STATION
119,BEDOK RESERVOIR RD,4,1985,BEDOK,119 BEDOK RESERVOIR RD,470119,1.33106966840838,103.909465489436,0.4,KAKI BUKIT MRT STATION
119,BISHAN ST 12,13,1986,BISHAN,119 BISHAN ST 12,570119,1.34734957400825,103.850535153606,0.4,BISHAN MRT STATION
119,BT BATOK WEST AVE 6,11,1983,BUKIT BATOK,119 BT BATOK WEST AVE 6,650119,1.35042197746912,103.746803582857,0.4,BUKIT BATOK MRT STATION
119,BT MERAH VIEW,16,1974,BUKIT MERAH,119 BT MERAH VIEW,152119,1.28342247684697,103.821068227228,0.7,TIONG BAHRU MRT STATION
119,BT MERAH LANE 1,2,1978,BUKIT MERAH,119 BT MERAH LANE 1,151119,1.28593893475633,103.804715808324,0.9,QUEENSTOWN MRT STATION
119,HO CHING RD,11,1971,JURONG WEST,119 HO CHING RD,610119,1.33529905914454,103.724712974749,1.1,LAKESIDE MRT STATION
119,HOUGANG AVE 1,11,1980,HOUGANG,119 HOUGANG AVE 1,530119,1.35400776886424,103.887748411693,0.8,KOVAN MRT STATION
119,LOR 1 TOA PAYOH,10,1967,TAMPINES,119 LOR 1 TOA PAYOH,310119,1.33910923815144,103.844687382414,0.4,BRADDELL MRT STATION
119,MARSILING RISE,13,1984,WOODLANDS,119 MARSILING RISE,730119,1.43882853194834,103.780322976407,0.9,MARSILING MRT STATION
119,MCNAIR RD,15,1986,KALLANG/WHAMPOA,119 MCNAIR RD,320119,1.3197152535396,103.856870419005,0.5,BOON KENG MRT STATION
119,PASIR RIS ST 11,11,1988,PASIR RIS,119 PASIR RIS ST 11,510119,1.36752490300235,103.954781393933,0.9,PASIR RIS MRT STATION
119,PENDING RD,4,1987,BUKIT PANJANG,119 PENDING RD,670119,1.37653754453637,103.769042225686,0.3,PENDING LRT STATION
119,POTONG PASIR AVE 1,13,1984,TAMPINES,119 POTONG PASIR AVE 1,350119,1.33456149665389,103.862943044844,0.7,POTONG PASIR MRT STATION
119,SERANGOON NTH AVE 1,4,1984,SERANGOON,119 SERANGOON NTH AVE 1,550119,1.36748142862257,103.871491752337,1.7,KOVAN MRT STATION
119,SIMEI ST 1,11,1987,TOA PAYOH,119 SIMEI ST 1,520119,1.34375761453109,103.951897830861,0.2,SIMEI MRT STATION
119,TECK WHYE LANE,12,1988,CHOA CHU KANG,119 TECK WHYE LANE,680119,1.37921555538309,103.750399424474,0.2,KEAT HONG LRT STATION
119,YISHUN RING RD,4,1984,YISHUN,119 YISHUN RING RD,760119,1.43539299497423,103.829177147654,0.9,YISHUN MRT STATION
119A,ALKAFF CRES,16,2024,TAMPINES,119A ALKAFF CRES,341119,1.3362660833814,103.874639428116,0.6,WOODLEIGH MRT STATION
119A,CANBERRA CRES,13,2016,SEMBAWANG,119A CANBERRA CRES,751119,1.44604755101014,103.831125256006,0.3,CANBERRA MRT STATION
119A,PLANTATION CRES,14,2024,TENGAH,119A PLANTATION CRES,691119,1.35648492557501,103.736288638658,1.7,CHINESE GARDEN MRT STATION
119A,RIVERVALE DR,17,1999,SENGKANG,119A RIVERVALE DR,541119,1.38417530549894,103.903383602884,0.1,KANGKAR LRT STATION
119B,ALKAFF CRES,16,2024,TAMPINES,119B ALKAFF CRES,342119,1.3366285763793,103.874162003453,0.5,WOODLEIGH MRT STATION
119B,CANBERRA CRES,13,2016,SEMBAWANG,119B CANBERRA CRES,752119,1.44637013931729,103.831574876885,0.4,CANBERRA MRT STATION
119B,KIM TIAN RD,30,2001,BUKIT MERAH,119B KIM TIAN RD,162119,1.28115558487763,103.827266559741,0.5,TIONG BAHRU MRT STATION
119B,PLANTATION CRES,11,2024,TENGAH,119B PLANTATION CRES,692119,1.35716592776546,103.7355426607,1.7,CHINESE GARDEN MRT STATION
119B,RIVERVALE DR,15,1999,SENGKANG,119B RIVERVALE DR,542119,1.38436210947006,103.902965031077,0.1,KANGKAR LRT STATION
119C,ALKAFF CRES,16,2024,TAMPINES,119C ALKAFF CRES,343119,1.33723683883605,103.874477963006,0.5,WOODLEIGH MRT STATION
119C,KIM TIAN RD,30,2001,BUKIT MERAH,119C KIM TIAN RD,163119,1.28148915140735,103.827671951512,0.5,TIONG BAHRU MRT STATION
119C,PLANTATION CRES,14,2024,TENGAH,119C PLANTATION CRES,693119,1.35742037653983,103.735198782731,1.8,CHINESE GARDEN MRT STATION
119C,RIVERVALE DR,17,1999,SENGKANG,119C RIVERVALE DR,543119,1.3849637388638,103.903254581819,0.2,KANGKAR LRT STATION
119D,KIM TIAN RD,30,2000,BUKIT MERAH,119D KIM TIAN RD,164119,1.2819459836123,103.827911093868,0.4,TIONG BAHRU MRT STATION
119D,RIVERVALE DR,15,1999,SENGKANG,119D RIVERVALE DR,544119,1.38530593043746,103.903609872053,0.2,KANGKAR LRT STATION
12,BEDOK STH AVE 2,12,1975,BEDOK,12 BEDOK STH AVE 2,460012,1.32110310080964,103.936900156912,0.9,BEDOK MRT STATION
12,CANTONMENT CL,30,2000,BUKIT MERAH,12 CANTONMENT CL,080012,1.27447615957187,103.84007025349,0.7,TANJONG PAGAR MRT STATION
12,DAKOTA CRES,2,1958,GEYLANG,12 DAKOTA CRES,390012,1.30577534295221,103.884729609178,0.2,MOUNTBATTEN MRT STATION
12,DOVER CL EAST,25,1977,QUEENSTOWN,12 DOVER CL EAST,130012,1.30499200291151,103.785807493097,0.6,ONE-NORTH MRT STATION
12,EUNOS CRES,14,1976,GEYLANG,12 EUNOS CRES,400012,1.3222176985441,103.904151586269,0.3,EUNOS MRT STATION
12,FARRER PK RD,30,2002,KALLANG/WHAMPOA,12 FARRER PK RD,210012,1.31198113120325,103.851638487106,0.5,FARRER PARK MRT STATION
12,HAIG RD,2,1977,GEYLANG,12 HAIG RD,430012,1.31560895809203,103.896081274411,0.5,PAYA LEBAR MRT STATION
12,HOLLAND AVE,22,1974,QUEENSTOWN,12 HOLLAND AVE,272012,1.30935284651406,103.794873297267,0.2,HOLLAND VILLAGE MRT STATION
12,JLN BT MERAH,25,1995,BUKIT MERAH,12 JLN BT MERAH,150012,1.28753116542451,103.807020232395,0.8,QUEENSTOWN MRT STATION
12,JOO SENG RD,19,1983,TAMPINES,12 JOO SENG RD,360012,1.33585385483747,103.87893270615,0.8,BARTLEY MRT STATION
12,KG ARANG RD,12,1964,KALLANG/WHAMPOA,12 KG ARANG RD,431012,1.30082885462595,103.883694825656,0.6,MOUNTBATTEN MRT STATION
12,LOR 7 TOA PAYOH,11,1969,TAMPINES,12 LOR 7 TOA PAYOH,310012,1.33674610724551,103.857615884177,1.2,BRADDELL MRT STATION
12,MARINE TER,25,1974,MARINE PARADE,12 MARINE TER,440012,1.30460708550376,103.915739855584,1.9,KEMBANGAN MRT STATION
12,MARSILING LANE,12,1975,WOODLANDS,12 MARSILING LANE,730012,1.44051412860781,103.778621611934,1.0,MARSILING MRT STATION
12,NTH BRIDGE RD,25,1974,KALLANG/WHAMPOA,12 NTH BRIDGE RD,190012,1.30431042727382,103.862781478293,0.3,LAVENDER MRT STATION
12,PINE CL,13,1981,GEYLANG,12 PINE CL,391012,1.30847854465222,103.882287785645,0.3,MOUNTBATTEN MRT STATION
12,ST. GEORGE'S RD,4,1984,KALLANG/WHAMPOA,12 ST. GEORGE'S RD,320012,1.32293079450577,103.862889951139,0.6,BOON KENG MRT STATION
12,TAMAN HO SWEE,9,1963,BUKIT MERAH,12 TAMAN HO SWEE,162012,1.28780753147299,103.832780576669,0.2,HAVELOCK MRT STATION
12,TECK WHYE LANE,25,1978,CHOA CHU KANG,12 TECK WHYE LANE,680012,1.37946433280774,103.755671539991,0.3,PHOENIX LRT STATION
12,TELOK BLANGAH CRES,16,1975,BUKIT MERAH,12 TELOK BLANGAH CRES,090012,1.27718546024846,103.819516181006,1.3,TIONG BAHRU MRT STATION
12,TOH YI DR,12,1988,BUKIT TIMAH,12 TOH YI DR,590012,1.33840274340359,103.772685810097,0.5,BEAUTY WORLD MRT STATION
12,UPP BOON KENG RD,12,1974,KALLANG/WHAMPOA,12 UPP BOON KENG RD,380012,1.31423066306718,103.870061147604,0.3,KALLANG MRT STATION
12,YORK HILL,12,1969,CENTRAL AREA,12 YORK HILL,163012,1.2869040952223,103.838147365943,0.5,HAVELOCK MRT STATION
12A,MARSILING LANE,26,2012,WOODLANDS,12A MARSILING LANE,731012,1.44131726915198,103.778405129794,1.0,MARSILING MRT STATION
12B,MARSILING LANE,30,2012,WOODLANDS,12B MARSILING LANE,732012,1.44108596725738,103.778120234676,1.0,MARSILING MRT STATION
12C,MARSILING LANE,30,2012,WOODLANDS,12C MARSILING LANE,733012,1.44108587711762,103.777781234398,1.0,MARSILING MRT STATION
120,ANG MO KIO AVE 3,11,1978,ANG MO KIO,120 ANG MO KIO AVE 3,560120,1.37004739686133,103.844594754874,0.5,ANG MO KIO MRT STATION
120,BEDOK NTH ST 2,19,1977,BEDOK,120 BEDOK NTH ST 2,460120,1.32997311186222,103.9375717024,0.9,BEDOK RESERVOIR MRT STATION
120,BEDOK RESERVOIR RD,12,1985,BEDOK,120 BEDOK RESERVOIR RD,470120,1.33089247225844,103.909920867054,0.5,KAKI BUKIT MRT STATION
120,BISHAN ST 12,4,1986,BISHAN,120 BISHAN ST 12,570120,1.34725137775914,103.850848308399,0.4,BISHAN MRT STATION
120,BT BATOK CTRL,17,1984,BUKIT BATOK,120 BT BATOK CTRL,650120,1.3510594273469,103.747712277505,0.3,BUKIT BATOK MRT STATION
120,BT MERAH VIEW,16,1972,BUKIT MERAH,120 BT MERAH VIEW,152120,1.28277443239482,103.822612454246,0.6,TIONG BAHRU MRT STATION
120,GEYLANG EAST CTRL,12,1981,GEYLANG,120 GEYLANG EAST CTRL,380120,1.31821153053878,103.884752333398,0.3,ALJUNIED MRT STATION
120,HOUGANG AVE 1,4,1982,HOUGANG,120 HOUGANG AVE 1,530120,1.35441882555226,103.887461889803,0.7,KOVAN MRT STATION
120,HO CHING RD,11,1971,JURONG WEST,120 HO CHING RD,610120,1.33540764836183,103.724260953568,1.0,LAKESIDE MRT STATION
120,KIM TIAN PL,29,1999,BUKIT MERAH,120 KIM TIAN PL,160120,1.28295503980413,103.827983319539,0.3,TIONG BAHRU MRT STATION
120,LOR 2 TOA PAYOH,10,1967,TAMPINES,120 LOR 2 TOA PAYOH,310120,1.33913568992412,103.845562921008,0.3,BRADDELL MRT STATION
120,MARSILING RISE,13,1984,WOODLANDS,120 MARSILING RISE,730120,1.43918122951508,103.780841083163,1.0,WOODLANDS MRT STATION
120,MCNAIR RD,15,1986,KALLANG/WHAMPOA,120 MCNAIR RD,320120,1.31947022376391,103.857035801904,0.4,BOON KENG MRT STATION
120,PAYA LEBAR WAY,21,1979,GEYLANG,120 PAYA LEBAR WAY,381120,1.32259415243858,103.884296105282,0.5,MATTAR MRT STATION
120,PASIR RIS ST 11,4,1988,PASIR RIS,120 PASIR RIS ST 11,510120,1.36731380774802,103.954362847168,0.8,PASIR RIS MRT STATION
120,PENDING RD,13,1987,BUKIT PANJANG,120 PENDING RD,670120,1.37705460161227,103.769444069298,0.2,PENDING LRT STATION
120,POTONG PASIR AVE 1,13,1984,TAMPINES,120 POTONG PASIR AVE 1,350120,1.33545353246777,103.863387980398,0.7,POTONG PASIR MRT STATION
120,SERANGOON NTH AVE 1,13,1984,SERANGOON,120 SERANGOON NTH AVE 1,550120,1.36726629285153,103.871070695868,1.7,KOVAN MRT STATION
120,SIMEI ST 1,11,1987,TOA PAYOH,120 SIMEI ST 1,520120,1.34488867578581,103.953241348812,0.3,SIMEI MRT STATION
120,TECK WHYE LANE,13,1988,CHOA CHU KANG,120 TECK WHYE LANE,680120,1.37884184875046,103.750340641074,0.1,KEAT HONG LRT STATION
120,YISHUN RING RD,13,1985,YISHUN,120 YISHUN RING RD,760120,1.43482138833722,103.829347800986,0.8,YISHUN MRT STATION
120A,CANBERRA CRES,14,2016,SEMBAWANG,120A CANBERRA CRES,751120,1.446140802959,103.832236151361,0.4,CANBERRA MRT STATION
120A,EDGEDALE PLAINS,17,2016,PUNGGOL,120A EDGEDALE PLAINS,821120,1.39451217943806,103.907964274268,0.3,MERIDIAN LRT STATION
120A,KIM TIAN PL,29,1999,BUKIT MERAH,120A KIM TIAN PL,161120,1.28324650251872,103.827854744997,0.3,TIONG BAHRU MRT STATION
120A,RIVERVALE DR,10,1999,SENGKANG,120A RIVERVALE DR,541120,1.38593215506966,103.903984341638,0.3,KANGKAR LRT STATION
120A,TENGAH DR,14,2024,TENGAH,120A TENGAH DR,691120,1.35836009636405,103.736836578343,1.7,BUKIT GOMBAK MRT STATION
120B,CANBERRA CRES,14,2016,SEMBAWANG,120B CANBERRA CRES,752120,1.44629377124154,103.83270384797,0.5,CANBERRA MRT STATION
120B,EDGEDALE PLAINS,17,2016,PUNGGOL,120B EDGEDALE PLAINS,822120,1.3948377810528,103.907584681234,0.3,MERIDIAN LRT STATION
120B,RIVERVALE DR,17,1999,SENGKANG,120B RIVERVALE DR,542120,1.38579818238123,103.904394269204,0.3,BAKAU LRT STATION
120B,TENGAH DR,11,2024,TENGAH,120B TENGAH DR,692120,1.35788110458066,103.737152482775,1.6,BUKIT GOMBAK MRT STATION
120C,CANBERRA CRES,15,2016,SEMBAWANG,120C CANBERRA CRES,753120,1.44707143643003,103.83280231533,0.6,CANBERRA MRT STATION
120C,RIVERVALE DR,17,1999,SENGKANG,120C RIVERVALE DR,543120,1.38526244576938,103.904005046452,0.2,KANGKAR LRT STATION
120C,TENGAH DR,9,2024,TENGAH,120C TENGAH DR,693120,1.35760431846364,103.736902719215,1.7,BUKIT GOMBAK MRT STATION
120D,CANBERRA CRES,14,2016,SEMBAWANG,120D CANBERRA CRES,754120,1.44676707236829,103.83229420147,0.5,CANBERRA MRT STATION
121,ANG MO KIO AVE 3,11,1978,ANG MO KIO,121 ANG MO KIO AVE 3,560121,1.36970563478325,103.843515981311,0.6,ANG MO KIO MRT STATION
121,BEDOK NTH RD,12,1977,BEDOK,121 BEDOK NTH RD,460121,1.32964201790706,103.938821071117,0.8,TANAH MERAH MRT STATION
121,BEDOK RESERVOIR RD,10,1985,BEDOK,121 BEDOK RESERVOIR RD,470121,1.33130517787872,103.909992224709,0.4,KAKI BUKIT MRT STATION
121,BISHAN ST 12,4,1986,BISHAN,121 BISHAN ST 12,570121,1.34718667789037,103.851049225201,0.4,BISHAN MRT STATION
121,BT BATOK CTRL,17,1984,BUKIT BATOK,121 BT BATOK CTRL,650121,1.35162557081969,103.748011382648,0.3,BUKIT BATOK MRT STATION
121,BT MERAH VIEW,9,1972,BUKIT MERAH,121 BT MERAH VIEW,151121,1.28308431759533,103.822804896509,0.6,TIONG BAHRU MRT STATION
121,BT MERAH LANE 1,4,1978,BUKIT MERAH,121 BT MERAH LANE 1,150121,1.28662949776774,103.804920144204,0.9,QUEENSTOWN MRT STATION
121,HOUGANG AVE 1,4,1981,HOUGANG,121 HOUGANG AVE 1,530121,1.3538605933002,103.886936534381,0.7,KOVAN MRT STATION
121,KIM TIAN PL,29,1999,BUKIT MERAH,121 KIM TIAN PL,160121,1.28270270194687,103.828491163221,0.4,TIONG BAHRU MRT STATION
121,LOR 2 TOA PAYOH,30,1998,TAMPINES,121 LOR 2 TOA PAYOH,310121,1.3391626233715,103.846243540344,0.2,BRADDELL MRT STATION
121,MARSILING RISE,4,1984,WOODLANDS,121 MARSILING RISE,730121,1.43916567473693,103.779976701121,0.9,MARSILING MRT STATION
121,MCNAIR RD,15,1986,KALLANG/WHAMPOA,121 MCNAIR RD,320121,1.31896793997824,103.856341994979,0.5,BOON KENG MRT STATION
121,PAYA LEBAR WAY,12,1979,GEYLANG,121 PAYA LEBAR WAY,381121,1.32192501630432,103.882860355973,0.6,MATTAR MRT STATION
121,PASIR RIS ST 11,13,1988,PASIR RIS,121 PASIR RIS ST 11,510121,1.36686954737879,103.954504704247,0.9,PASIR RIS MRT STATION
121,PENDING RD,13,1987,BUKIT PANJANG,121 PENDING RD,670121,1.37720047788648,103.769852814329,0.2,PENDING LRT STATION
121,POTONG PASIR AVE 1,21,1984,TAMPINES,121 POTONG PASIR AVE 1,350121,1.33576029177039,103.865596996588,0.5,POTONG PASIR MRT STATION
121,RIVERVALE DR,17,1999,SENGKANG,121 RIVERVALE DR,540121,1.38700727244301,103.904788709879,0.1,BAKAU LRT STATION
121,SERANGOON NTH AVE 1,13,1984,SERANGOON,121 SERANGOON NTH AVE 1,550121,1.36693542180082,103.8712847222,1.7,KOVAN MRT STATION
121,TECK WHYE LANE,11,1988,CHOA CHU KANG,121 TECK WHYE LANE,680121,1.37830357075531,103.750108106647,0.1,KEAT HONG LRT STATION
121,YISHUN ST 11,10,1983,YISHUN,121 YISHUN ST 11,760121,1.43436897707941,103.830142952357,0.7,YISHUN MRT STATION
121,YUAN CHING RD,10,1971,JURONG WEST,121 YUAN CHING RD,610121,1.33570402533121,103.724078165253,1.0,LAKESIDE MRT STATION
